packetnr,hk,lat,lon,alt,hh,mm,ss,nsat,p,H,T,ntc,bat,yaw,pitch,roll,rssi
2069,0,78.20239258,15.82898331,3.9,7,44,25,18,996.605,74,9.6,1397,2504,-69,7,-22,-66
2070,0,78.20239258,15.82897186,3.9,7,44,26,18,996.582,74,9.62,1398,2503,-72,1,-26,-60
2071,0,78.20239258,15.82895660,3.9,7,44,27,18,996.583,74,9.63,1400,2501,-60,9,-31,-65
2072,0,78.20239258,15.82894516,3.6,7,44,28,18,996.593,74,9.63,1402,2503,-53,2,-33,-65
2073,0,78.20239258,15.82892227,3.7,7,44,29,18,996.628,74,9.64,1402,2503,-25,0,-34,-60
2074,0,78.20239258,15.82890320,3.8,7,44,30,18,996.602,74,9.65,1403,2500,-47,-14,-31,-64
2075,0,78.20239258,15.82889175,3.8,7,44,31,18,996.569,73,9.66,1403,2503,-44,-21,-29,-70
2076,0,78.20239258,15.82888794,3.9,7,44,32,18,996.551,73,9.67,1403,2499,-104,-10,-42,-75
2077,0,78.20239258,15.82888031,3.9,7,44,33,18,996.589,73,9.67,1404,2503,98,-13,-54,-68
2078,0,78.20239258,15.82888794,4.0,7,44,34,18,996.56,73,9.69,1406,2500,31,-18,-45,-70
2079,0,78.20239258,15.82888794,3.9,7,44,35,18,996.547,73,9.7,1410,2500,19,-10,-54,-69
2080,0,78.20239258,15.82888412,3.5,7,44,36,18,996.559,73,9.71,1412,2500,35,-11,-52,-69
2081,0,78.20239258,15.82889938,3.4,7,44,37,18,996.585,73,9.72,1414,2502,127,1,-38,-73
2082,0,78.20236206,15.82892227,3.2,7,44,38,18,996.57,73,9.73,1415,2502,-113,2,-46,-74
2083,0,78.20236206,15.82894516,3.0,7,44,39,17,996.54,73,9.73,1417,2501,-116,-5,-53,-70
2084,0,78.20236206,15.82897949,2.8,7,44,40,18,996.554,73,9.74,1418,2502,-123,-3,-48,-69
2085,0,78.20236206,15.82902908,2.4,7,44,41,18,996.654,73,9.75,1420,2499,107,-9,-28,-70
2086,0,78.20236206,15.82907104,2.1,7,44,42,18,996.667,73,9.76,1420,2495,74,-19,-29,-72
2087,0,78.20236206,15.82909012,1.7,7,44,43,18,996.696,73,9.77,1418,2498,32,-15,-37,-68
2088,0,78.20236206,15.82910919,1.4,7,44,44,18,996.672,73,9.79,1417,2500,8,-22,14,-70
2089,0,78.20236206,15.82911682,1.0,7,44,45,18,996.711,73,9.79,1416,2501,17,-33,-9,-71
2090,0,78.20236206,15.82911301,0.8,7,44,46,18,996.727,73,9.8,1417,2500,17,-34,-11,-73
2091,0,78.20236206,15.82912064,0.9,7,44,47,18,996.702,73,9.81,1418,2498,54,-34,-14,-76
2092,0,78.20236206,15.82911301,0.5,7,44,48,18,996.69,73,9.83,1420,2498,74,-19,-32,-78
2093,0,78.20236206,15.82911301,0.7,7,44,49,17,996.626,73,9.83,1420,2490,82,-23,-38,-80
2094,0,78.20236206,15.82911301,0.9,7,44,50,18,996.615,73,9.84,1421,2501,115,-19,-47,-76
2095,0,78.20236206,15.82911682,1.1,7,44,51,18,996.609,72,9.85,1422,2498,104,-24,-57,-77
2096,0,78.20236206,15.82911301,1.2,7,44,52,18,996.583,72,9.85,1423,2499,115,-32,-62,-71
2097,0,78.20236206,15.82910919,1.2,7,44,53,17,996.61,72,9.86,1423,2498,-122,-38,-81,-77
2098,0,78.20236206,15.82910538,1.3,7,44,54,18,996.598,72,9.87,1424,2498,-126,-36,-73,-73
2099,0,78.20236206,15.82910919,1.3,7,44,55,18,996.601,72,9.88,1423,2501,-86,-10,123,-70
2100,0,78.20236206,15.82911301,1.2,7,44,56,18,996.617,72,9.89,1421,2500,-76,-16,-118,-69
2101,0,78.20236206,15.82911682,1.1,7,44,57,18,996.591,72,9.89,1414,2501,-77,-14,-100,-74
2102,0,78.20236206,15.82913208,1.0,7,44,58,18,996.61,72,9.9,1411,2506,-78,-12,-95,-73
2103,0,78.20236206,15.82914734,0.8,7,44,59,18,996.596,72,9.9,1410,2498,-78,-13,-95,-73
2104,0,78.20236206,15.82915878,0.7,7,45,0,18,996.602,72,9.9,1410,2497,-78,-13,-95,-72
2105,0,78.20236206,15.82917023,0.6,7,45,1,18,996.639,72,9.92,1410,2499,-104,6,-91,-74
2106,0,78.20236206,15.82916641,0.8,7,45,2,18,996.677,72,9.93,1412,2499,122,42,-75,-73
2107,0,78.20236206,15.82916641,1.4,7,45,3,18,996.759,72,9.93,1417,2499,-31,56,28,-68
2108,0,78.20236206,15.82916260,1.9,7,45,4,17,996.792,72,9.94,1427,2497,-31,51,32,-92
2109,0,78.20236206,15.82916260,1.8,7,45,5,18,996.772,73,9.94,1435,2498,-39,50,23,-71
2110,0,78.20236206,15.82915878,1.9,7,45,6,18,996.759,73,9.94,1443,2497,-40,50,22,-65
2111,0,78.20236206,15.82914734,2.2,7,45,7,18,996.766,73,9.95,1451,2497,-40,50,22,-69
2112,0,78.20236206,15.82913971,2.5,7,45,8,18,996.773,73,9.95,1457,2499,-41,50,22,-61
2113,0,78.20236206,15.82913208,2.8,7,45,9,17,996.792,73,9.95,1463,2500,-41,50,22,-57
2114,0,78.20233154,15.82912445,2.8,7,45,10,17,996.771,72,9.96,1467,2500,-41,50,22,-58
2115,0,78.20236206,15.82912445,2.9,7,45,11,17,996.783,72,9.96,1471,2499,-41,50,22,-58
2116,0,78.20236206,15.82913971,2.7,7,45,12,17,996.791,72,9.97,1475,2499,-41,50,22,-56
2117,0,78.20236206,15.82914734,2.6,7,45,13,17,996.789,72,9.97,1478,2497,-41,50,22,-58
2118,0,78.20236206,15.82915115,2.6,7,45,14,17,996.737,72,9.97,1481,2496,-41,50,22,-60
2119,0,78.20236206,15.82914352,2.7,7,45,15,17,996.772,72,9.98,1484,2497,-41,50,22,-56
2120,0,78.20236206,15.82913208,2.9,7,45,16,17,996.767,72,9.98,1486,2498,-41,50,22,-56
2121,0,78.20233154,15.82912064,3.1,7,45,17,18,996.769,72,9.98,1487,2498,-41,50,22,-57
2122,0,78.20236206,15.82912827,2.8,7,45,18,18,996.857,72,9.98,1489,2495,-41,51,21,-57
2123,0,78.20236206,15.82913971,2.6,7,45,19,18,997.488,72,9.99,1489,2496,-51,48,9,-56
2124,0,78.20236206,15.82913208,2.3,7,45,20,17,996.44,72,9.99,1479,2493,-40,42,20,-59
2125,0,78.20236206,15.82912064,2.0,7,45,21,18,996.252,72,9.99,1470,2497,-38,42,21,-70
2126,0,78.20236206,15.82910538,1.6,7,45,22,18,995.401,72,10.0,1454,2499,-38,44,20,-64
2127,0,78.20233154,15.82914352,1.3,7,45,23,18,994.835,72,10.0,1436,2496,-41,46,16,-67
2128,0,78.20233154,15.82920837,0.6,7,45,24,17,994.093,72,10.0,1419,2497,-40,45,17,-70
2129,0,78.20230103,15.82936096,-0.4,7,45,25,18,993.432,72,10.0,1401,2499,-40,45,17,-73
2130,0,78.20227051,15.82949829,-1.6,7,45,26,17,992.854,72,10.0,1385,2498,-39,45,18,-75
2131,0,78.20223999,15.82967377,-3.0,7,45,27,18,992.178,72,10.0,1373,2498,-40,44,17,-75
2132,0,78.20217896,15.82986069,-4.1,7,45,28,17,991.652,72,10.0,1364,2501,-39,43,18,-77
2133,0,78.20214844,15.83010101,-5.3,7,45,29,18,990.866,72,10.0,1358,2498,-40,43,17,-78
2134,0,78.20211792,15.83043671,-6.6,7,45,30,18,990.26,72,10.0,1354,2496,-41,45,17,-79
2135,0,78.20208740,15.83057022,-8.2,7,45,31,18,989.734,71,10.0,1351,2497,-40,44,18,-80
2136,0,78.20202637,15.83074951,-9.6,7,45,32,18,989.153,71,10.0,1349,2497,-40,45,18,-80
2137,0,78.20196533,15.83095169,-11.0,7,45,33,18,988.658,71,10.01,1348,2494,-40,43,18,-81
2138,0,78.20193481,15.83116913,-12.6,7,45,34,18,988.024,71,10.01,1346,2497,-36,42,23,-83
2139,0,78.20184326,15.83137512,-14.5,7,45,35,18,987.455,71,10.01,1345,2497,-38,44,22,-83
2140,0,78.20178223,15.83159256,-16.4,7,45,36,17,986.898,71,10.01,1346,2498,-37,43,24,-83
2141,0,78.20169067,15.83187103,-18.9,7,45,37,18,986.34,71,10.01,1347,2498,-36,46,26,-84
2142,0,78.20162964,15.83205032,-20.8,7,45,38,18,986.27,71,10.03,1349,2502,-124,58,-57,-81
2143,0,78.20156860,15.83228302,-22.8,7,45,39,17,985.601,71,10.04,1349,2504,-39,46,25,-85
2144,0,78.20150757,15.83250046,-25.1,7,45,40,18,984.963,71,10.03,1350,2498,-39,43,26,-85
2145,0,78.20141602,15.83274841,-27.7,7,45,41,18,984.445,71,10.04,1351,2498,-39,44,26,-85
2146,0,78.20138550,15.83298874,-27.1,7,45,42,17,983.801,71,10.04,1351,2497,-39,45,26,-85
2147,0,78.20132446,15.83313370,-29.3,7,45,43,18,983.181,71,10.04,1353,2497,-43,47,22,-87
2148,0,78.20126343,15.83324814,-31.8,7,45,44,18,982.786,71,10.04,1355,2494,-42,47,23,-87
2149,0,78.20123291,15.83329391,-34.3,7,45,45,16,982.716,71,10.05,1356,2495,-40,47,25,-89
2150,0,78.20123291,15.83335876,-36.1,7,45,46,16,982.662,71,10.06,1359,2495,-44,47,20,-87
2151,0,78.20123291,15.83336639,-35.7,7,45,47,15,982.695,71,10.07,1360,2501,-44,48,20,-87
2152,0,78.20129395,15.83344269,-36.0,7,45,48,16,982.653,71,10.06,1362,2497,-45,47,19,-86
2153,0,78.20132446,15.83354950,-34.9,7,45,49,16,982.718,71,10.07,1361,2496,-45,48,19,-86
2154,0,78.20138550,15.83358002,-35.8,7,45,50,15,982.702,71,10.08,1364,2496,-43,49,21,-85
2155,0,78.20141602,15.83359909,-36.4,7,45,51,14,982.703,71,10.08,1363,2493,-43,48,22,-86
2156,0,78.20144653,15.83361816,-35.6,7,45,52,15,982.671,71,10.09,1363,2493,-42,49,22,-86
2157,0,78.20141602,15.83362961,-36.8,7,45,53,15,982.864,71,10.1,1364,2496,43,47,84,-80
2158,0,78.20141602,15.83363342,-37.1,7,45,54,15,983.434,71,10.09,1364,2496,-58,44,7,-84
2159,0,78.20141602,15.83363342,-37.4,7,45,55,13,984.018,71,10.1,1364,2499,-68,54,-61,-82
2160,0,78.20141602,15.83361435,-37.7,7,45,56,15,984.436,71,10.09,1363,2496,120,52,123,-83
2161,0,78.20141602,15.83358002,-37.9,7,45,57,18,984.844,71,10.09,1362,2495,-103,46,104,-87
2162,0,78.20141602,15.83350754,-38.2,7,45,58,15,985.24,71,10.09,1362,2493,-72,46,114,-83
2163,0,78.20144653,15.83340073,-38.4,7,45,59,16,985.596,71,10.09,1359,2497,-10,52,-84,-87
2164,0,78.20147705,15.83324432,-38.5,7,46,0,15,986.019,71,10.09,1359,2497,-67,38,112,-81
2165,0,78.20150757,15.83307648,-38.6,7,46,1,16,986.514,71,10.09,1357,2494,29,39,62,-89
2166,0,78.20153809,15.83302689,-38.7,7,46,2,14,986.948,71,10.09,1356,2494,65,56,109,-80
2167,0,78.20156860,15.83290100,-38.9,7,46,3,18,987.311,71,10.08,1355,2500,48,47,123,-82
2168,0,78.20159912,15.83292389,-39.0,7,46,4,16,987.685,71,10.08,1353,2500,117,58,90,-86
2169,0,78.20166016,15.83290100,-39.2,7,46,5,16,988.099,71,10.08,1352,2496,81,51,107,-80
2170,0,78.20166016,15.83282471,-39.4,7,46,6,17,988.551,71,10.08,1350,2496,-98,50,88,-79
2171,0,78.20172119,15.83272171,-39.8,7,46,7,17,988.953,71,10.08,1350,2493,-41,48,119,-80
2172,0,78.20175171,15.83253860,-40.7,7,46,8,16,989.348,71,10.07,1348,2496,-33,49,-126,-78
2173,0,78.20184326,15.83231354,-42.0,7,46,9,18,989.787,71,10.07,1345,2496,-17,44,105,-75
2174,0,78.20190430,15.83208084,-41.0,7,46,10,18,990.202,71,10.07,1345,2492,19,55,-110,-74
2175,0,78.20193481,15.83196259,-41.0,7,46,11,17,990.674,71,10.07,1343,2493,-7,58,116,-74
2176,0,78.20196533,15.83189774,-41.1,7,46,12,17,991.045,71,10.07,1342,2495,79,55,-77,-75
2177,0,78.20199585,15.83180618,-41.1,7,46,13,18,991.522,71,10.06,1341,2495,-15,57,107,-74
2178,0,78.20205688,15.83168030,-43.7,7,46,14,18,991.939,71,10.06,1340,2493,100,49,-73,-75
2179,0,78.20208740,15.83157349,-43.9,7,46,15,17,992.331,71,10.06,1339,2493,3,48,85,-79
2180,0,78.20211792,15.83146286,-44.3,7,46,16,16,992.8,71,10.06,1337,2493,121,50,-104,-73
2181,0,78.20214844,15.83137512,-43.3,7,46,17,18,993.136,71,10.06,1337,2491,95,57,-108,-74
2182,0,78.20214844,15.83128357,-42.5,7,46,18,17,993.48,71,10.05,1336,2487,123,51,-122,-74
2183,0,78.20214844,15.83110046,-41.1,7,46,19,18,993.882,71,10.05,1337,2496,-86,49,-116,-74
2184,0,78.20214844,15.83090591,-39.5,7,46,20,18,994.196,71,10.05,1335,2496,-79,43,115,-72
2185,0,78.20214844,15.83064651,-37.3,7,46,21,18,994.544,71,10.05,1333,2495,-63,51,-122,-73

