packetnr,hk,lat,lon,alt,hh,mm,ss,nsat,p,H,T,ntc,bat,yaw,pitch,roll,rssi
1875,0,78.22277832,15.65243912,15.0,10,48,46,9,1006.88,36,20.38,1554,2509,-23,-3,20,-88
1876,0,78.22277832,15.65244293,14.9,10,48,47,9,1006.91,36,20.36,1556,2509,-23,-3,20,-88
1877,0,78.22277832,15.65244293,14.9,10,48,48,9,1006.91,36,20.33,1559,2509,-23,-3,20,-88
1878,0,78.22277832,15.65243912,14.9,10,48,49,9,1006.91,36,20.31,1561,2510,-23,-3,20,-88
1879,0,78.22277832,15.65243149,14.9,10,48,50,9,1006.89,36,20.28,1563,2509,-23,-3,20,-89
1880,0,78.22277832,15.65242767,14.9,10,48,51,9,1006.91,36,20.26,1564,2502,-23,-3,20,-89
1881,0,78.22277832,15.65242767,15.0,10,48,52,9,1006.88,36,20.23,1566,2510,-23,-3,20,-88
1882,0,78.22277832,15.65241241,14.9,10,48,53,9,1006.92,36,20.21,1569,2510,-23,-3,20,-87
1883,0,78.22277832,15.65240097,14.9,10,48,54,9,1006.92,36,20.18,1570,2510,-23,-3,20,-89
1884,0,78.22277832,15.65239334,14.8,10,48,55,9,1006.93,36,20.16,1572,2510,-23,-3,20,-88
1885,0,78.22277832,15.65239334,14.8,10,48,56,9,1006.92,36,20.13,1572,2510,-23,-3,20,-88
1886,0,78.22277832,15.65238571,14.8,10,48,57,9,1006.94,36,20.1,1572,2511,-23,-3,20,-87
1887,0,78.22277832,15.65237427,14.8,10,48,58,9,1006.92,36,20.07,1572,2506,-23,-3,20,-88
1888,0,78.22277832,15.65236282,14.8,10,48,59,9,1006.9,36,20.05,1573,2510,-23,-3,20,-87
1889,0,78.22277832,15.65234375,14.8,10,49,0,9,1006.9,36,20.03,1574,2509,-23,-3,20,-88
1890,0,78.22277832,15.65234756,14.8,10,49,1,9,1006.93,36,20.0,1574,2508,-23,-3,20,-88
1891,0,78.22277832,15.65234756,14.8,10,49,2,9,1006.91,36,19.98,1574,2510,-23,-3,20,-88
1892,0,78.22277832,15.65235138,14.9,10,49,3,9,1006.93,36,19.95,1573,2510,-23,-3,20,-88
1893,0,78.22277832,15.65234375,14.9,10,49,4,9,1006.92,36,19.93,1570,2510,-23,-3,20,-89
1894,0,78.22277832,15.65232849,14.9,10,49,5,9,1006.9,36,19.91,1570,2509,-23,-3,20,-88
1895,0,78.22277832,15.65230560,14.9,10,49,6,9,1006.9,36,19.87,1567,2511,-23,-3,20,-90
1896,0,78.22277832,15.65229416,14.9,10,49,7,9,1006.95,36,19.85,1566,2512,-23,-3,20,-91
1897,0,78.22277832,15.65229034,14.9,10,49,8,9,1006.94,37,19.82,1563,2511,-23,-3,20,-88
1898,0,78.22277832,15.65227127,15.0,10,49,9,9,1006.92,37,19.79,1561,2511,-23,-3,20,-91
1899,0,78.22277832,15.65228653,15.0,10,49,10,9,1006.92,37,19.76,1559,2509,-23,-3,20,-89
1900,0,78.22277832,15.65227127,15.0,10,49,11,9,1006.91,37,19.75,1558,2511,-23,-3,20,-89
1901,0,78.22277832,15.65227890,15.0,10,49,12,9,1006.96,37,19.72,1558,2512,-23,-3,20,-89
1902,0,78.22277832,15.65228271,15.1,10,49,13,9,1006.9,37,19.69,1558,2512,-23,-3,20,-89
1903,0,78.22277832,15.65229034,15.1,10,49,14,9,1006.93,37,19.68,1555,2512,-23,-3,20,-88
1904,0,78.22277832,15.65229034,15.2,10,49,15,9,1006.92,37,19.64,1550,2508,-23,-3,20,-90
1905,0,78.22277832,15.65227890,15.1,10,49,16,9,1006.92,37,19.62,1550,2510,-23,-3,20,-90
1906,0,78.22277832,15.65226364,15.1,10,49,17,9,1006.92,37,19.6,1547,2510,-23,-3,20,-91
1907,0,78.22277832,15.65226746,15.2,10,49,18,9,1006.93,37,19.57,1542,2509,-23,-3,20,-88
1908,0,78.22277832,15.65227127,15.2,10,49,19,9,1006.92,37,19.55,1539,2510,-23,-3,20,-89
1909,0,78.22277832,15.65226746,15.2,10,49,20,9,1006.92,37,19.53,1536,2511,-23,-3,20,-90
1910,0,78.22277832,15.65228653,15.3,10,49,21,9,1006.93,37,19.5,1536,2509,-23,-3,20,-89
1911,0,78.22277832,15.65229416,15.3,10,49,22,9,1006.93,37,19.47,1534,2511,-23,-3,20,-88
1912,0,78.22277832,15.65229034,15.3,10,49,23,8,1006.9,37,19.45,1532,2510,-23,-3,20,-89
1913,0,78.22277832,15.65229034,15.3,10,49,24,8,1006.89,37,19.42,1529,2513,-23,-3,20,-90
1914,0,78.22277832,15.65230179,15.3,10,49,25,9,1006.91,37,19.4,1529,2509,-23,-3,20,-91
1915,0,78.22277832,15.65230179,15.3,10,49,26,9,1006.94,37,19.38,1526,2509,-23,-3,20,-90
1916,0,78.22277832,15.65230179,15.3,10,49,27,9,1006.93,37,19.35,1524,2510,-23,-3,20,-90
1917,0,78.22277832,15.65230560,15.3,10,49,28,9,1006.92,37,19.33,1522,2511,-23,-3,20,-90
1918,0,78.22277832,15.65230179,15.3,10,49,29,9,1006.91,37,19.3,1520,2509,-23,-3,20,-89
1919,0,78.22277832,15.65229797,15.3,10,49,30,9,1006.93,37,19.28,1519,2511,-23,-3,20,-89
1920,0,78.22277832,15.65228271,15.2,10,49,31,9,1006.92,37,19.25,1517,2513,-23,-3,20,-90
1921,0,78.22277832,15.65229034,15.2,10,49,32,8,1006.93,37,19.23,1515,2511,-23,-3,20,-90
1922,0,78.22277832,15.65229416,15.3,10,49,33,9,1006.92,37,19.21,1511,2510,-23,-3,20,-87
1923,0,78.22277832,15.65227890,15.2,10,49,34,9,1006.88,37,19.18,1511,2510,-23,-3,20,-88
1924,0,78.22277832,15.65227509,15.3,10,49,35,9,1006.92,38,19.16,1509,2509,-23,-3,20,-88
1925,0,78.22277832,15.65227509,15.3,10,49,36,9,1006.89,38,19.13,1508,2510,-23,-3,20,-88
1926,0,78.22277832,15.65227127,15.3,10,49,37,9,1006.9,38,19.11,1508,2511,-23,-3,20,-89
1927,0,78.22277832,15.65227509,15.3,10,49,38,9,1006.89,38,19.08,1507,2508,-23,-3,20,-88
1928,0,78.22277832,15.65226364,15.3,10,49,39,9,1006.89,38,19.06,1505,2509,-23,-3,20,-88
1929,0,78.22277832,15.65225220,15.2,10,49,40,10,1006.9,38,19.04,1505,2515,-23,-3,20,-88
1930,0,78.22277832,15.65227127,15.3,10,49,41,10,1006.9,38,19.01,1504,2510,-23,-3,20,-90
1931,0,78.22277832,15.65226746,15.3,10,49,42,10,1006.9,38,18.99,1503,2511,-23,-3,20,-89
1932,0,78.22277832,15.65227127,15.3,10,49,43,10,1006.91,38,18.96,1503,2509,-23,-3,20,-89
1933,0,78.22277832,15.65229034,15.4,10,49,44,10,1006.89,38,18.94,1502,2511,-23,-3,20,-91
1934,0,78.22277832,15.65226746,15.3,10,49,45,10,1006.9,38,18.91,1503,2511,-23,-3,20,-93
1935,0,78.22277832,15.65231705,15.4,10,49,46,10,1006.93,38,18.89,1504,2511,-23,-3,20,-92
1936,0,78.22277832,15.65233612,15.5,10,49,47,10,1006.9,38,18.87,1503,2510,-23,-3,20,-92
1937,0,78.22277832,15.65233994,15.6,10,49,48,10,1006.91,38,18.84,1503,2512,-23,-3,20,-92
1938,0,78.22277832,15.65235138,15.6,10,49,49,10,1006.9,38,18.82,1503,2513,-23,-3,20,-93
1939,0,78.22277832,15.65237427,15.7,10,49,50,10,1006.9,38,18.79,1503,2518,-23,-3,20,-90
1940,0,78.22277832,15.65239334,15.7,10,49,51,10,1006.91,38,18.77,1503,2510,-23,-3,20,-91
1941,0,78.22277832,15.65239716,15.7,10,49,52,11,1006.89,38,18.75,1503,2509,-23,-3,20,-91
1942,0,78.22277832,15.65240097,15.7,10,49,53,10,1006.88,38,18.72,1501,2511,-23,-3,20,-91
1943,0,78.22277832,15.65240479,15.6,10,49,54,10,1006.87,38,18.7,1500,2511,-23,-3,20,-91
1944,0,78.22277832,15.65241623,15.7,10,49,55,9,1006.89,38,18.68,1501,2510,-23,-3,20,-91
1945,0,78.22280884,15.65243149,15.7,10,49,56,10,1006.9,38,18.65,1501,2510,-23,-3,20,-93
1946,0,78.22280884,15.65243149,15.7,10,49,57,9,1006.86,38,18.63,1501,2509,-23,-3,20,-92
1947,0,78.22280884,15.65242767,15.7,10,49,58,9,1006.85,38,18.61,1503,2511,-23,-3,20,-89
1948,0,78.22280884,15.65243149,15.7,10,49,59,10,1006.87,39,18.58,1507,2510,-23,-3,20,-89
1949,0,78.22280884,15.65243149,15.7,10,50,0,10,1006.85,39,18.55,1508,2510,-23,-3,20,-90
1950,0,78.22280884,15.65243530,15.7,10,50,1,9,1006.87,39,18.53,1512,2511,-23,-3,20,-90
1951,0,78.22280884,15.65243530,15.7,10,50,2,10,1006.85,39,18.5,1514,2509,-23,-3,20,-88
1952,0,78.22280884,15.65243149,15.6,10,50,3,9,1006.83,39,18.48,1517,2510,-23,-3,20,-88
1953,0,78.22277832,15.65241241,15.5,10,50,4,9,1006.84,39,18.46,1519,2509,-23,-3,20,-90
1954,0,78.22277832,15.65239716,15.6,10,50,5,10,1006.83,39,18.43,1523,2494,-23,-3,20,-92
1956,0,78.22280884,15.65242386,15.6,10,50,7,10,1006.83,39,18.39,1530,2509,-23,-3,20,-92
1957,0,78.22280884,15.65242767,15.6,10,50,8,9,1006.84,39,18.36,1530,2510,-23,-3,20,-92
1958,0,78.22280884,15.65246201,15.7,10,50,9,9,1006.82,39,18.34,1532,2510,-23,-3,20,-91
1959,0,78.22280884,15.65248489,15.7,10,50,10,9,1006.79,39,18.32,1536,2510,-23,-3,20,-91
1960,0,78.22280884,15.65249252,15.7,10,50,11,9,1006.87,39,18.3,1540,2509,-23,-3,20,-89
1961,0,78.22280884,15.65246582,15.7,10,50,12,9,1006.87,39,18.28,1543,2509,-23,-3,20,-90
1962,0,78.22280884,15.65249634,15.7,10,50,13,9,1006.87,39,18.26,1546,2509,-23,-3,20,-91
1963,0,78.22280884,15.65248489,15.8,10,50,14,9,1006.86,39,18.24,1550,2493,-23,-3,20,-90
1964,0,78.22280884,15.65250397,15.8,10,50,15,9,1006.84,39,18.22,1554,2509,-23,-3,20,-90
1965,0,78.22280884,15.65250397,15.8,10,50,16,9,1006.89,39,18.19,1557,2510,-23,-3,20,-91
1966,0,78.22280884,15.65251541,15.8,10,50,17,9,1006.85,39,18.17,1561,2509,-23,-3,20,-88
1967,0,78.22280884,15.65251160,15.8,10,50,18,9,1006.85,39,18.15,1564,2511,-23,-3,20,-93
1968,0,78.22280884,15.65251160,15.8,10,50,19,9,1006.87,39,18.13,1567,2508,-23,-3,20,-87
1969,0,78.22280884,15.65251541,15.9,10,50,20,9,1006.84,39,18.1,1570,2509,-23,-3,20,-91
1970,0,78.22280884,15.65251541,15.8,10,50,21,9,1006.87,39,18.09,1573,2507,-23,-3,20,-91
1971,0,78.22280884,15.65251541,15.8,10,50,22,9,1006.86,39,18.06,1576,2510,-23,-3,20,-92
1972,0,78.22280884,15.65252304,15.8,10,50,23,9,1006.85,39,18.04,1578,2510,-23,-3,20,-98
1973,0,78.22280884,15.65252686,15.9,10,50,24,9,1006.88,39,18.01,1579,2510,-23,-3,20,-95
1974,0,78.22280884,15.65253067,15.9,10,50,25,10,1006.82,40,17.99,1580,2508,-23,-3,20,-91
1975,0,78.22280884,15.65252686,15.8,10,50,26,10,1006.84,40,17.98,1581,2509,-23,-3,20,-94
1976,0,78.22280884,15.65251923,15.8,10,50,27,10,1006.83,40,17.96,1582,2508,-23,-3,20,-94
1977,0,78.22280884,15.65251923,15.8,10,50,28,10,1006.86,40,17.94,1582,2509,-23,-3,20,-92
1978,0,78.22280884,15.65251923,15.7,10,50,29,10,1006.83,40,17.92,1585,2510,-23,-3,20,-94
1979,0,78.22280884,15.65252686,15.8,10,50,30,10,1006.83,40,17.89,1584,2512,-23,-3,20,-93
1980,0,78.22280884,15.65252686,15.8,10,50,31,10,1006.86,40,17.88,1585,2509,-23,-3,20,-92
1981,0,78.22280884,15.65251923,15.7,10,50,32,10,1006.86,40,17.85,1586,2510,-23,-3,20,-95
1982,0,78.22280884,15.65251923,15.7,10,50,33,9,1006.82,40,17.82,1588,2510,-23,-3,20,-89
1983,0,78.22280884,15.65252686,15.8,10,50,34,10,1006.85,40,17.81,1590,2510,-23,-3,20,-89
1984,0,78.22280884,15.65253448,15.8,10,50,35,9,1006.84,40,17.79,1591,2508,-23,-3,20,-88
1985,0,78.22280884,15.65253067,15.7,10,50,36,10,1006.81,40,17.77,1592,2511,-23,-3,20,-88
1986,0,78.22280884,15.65253830,15.8,10,50,37,10,1006.84,40,17.75,1593,2510,-23,-3,20,-89
1987,0,78.22280884,15.65254211,15.8,10,50,38,10,1006.85,40,17.73,1594,2505,-23,-3,20,-89
1988,0,78.22280884,15.65254211,15.8,10,50,39,10,1006.84,40,17.71,1597,2511,-23,-3,20,-88
1989,0,78.22280884,15.65254211,15.6,10,50,40,9,1006.82,40,17.69,1597,2510,-23,-3,20,-87
1990,0,78.22280884,15.65254593,15.8,10,50,41,9,1006.82,40,17.67,1599,2509,-23,-3,20,-85
1991,0,78.22280884,15.65254974,15.7,10,50,42,9,1006.84,40,17.65,1600,2511,-23,-3,20,-84
1992,0,78.22280884,15.65254211,15.7,10,50,43,9,1006.9,40,17.63,1601,2511,-23,-3,20,-84
1993,0,78.22280884,15.65255356,15.8,10,50,44,9,1006.88,40,17.61,1602,2510,-23,-3,20,-85
1994,0,78.22280884,15.65256119,15.8,10,50,45,10,1006.85,40,17.59,1602,2508,-23,-3,20,-85
1995,0,78.22280884,15.65255356,15.7,10,50,46,10,1006.84,40,17.57,1603,2510,-23,-3,20,-85
1996,0,78.22280884,15.65256119,15.8,10,50,47,10,1006.86,40,17.55,1603,2511,-23,-3,20,-85
1997,0,78.22280884,15.65257263,15.9,10,50,48,10,1006.84,40,17.53,1603,2511,-23,-3,20,-85
1998,0,78.22280884,15.65257645,15.9,10,50,49,10,1006.83,40,17.51,1603,2511,-23,-3,20,-85
1999,0,78.22280884,15.65256500,15.8,10,50,50,10,1006.84,40,17.49,1602,2512,-23,-3,20,-85
2000,0,78.22280884,15.65259171,15.9,10,50,51,10,1006.85,40,17.47,1602,2511,-23,-3,20,-85
2001,0,78.22280884,15.65257645,15.9,10,50,52,10,1006.81,41,17.45,1602,2509,-23,-3,20,-85
2002,0,78.22280884,15.65258408,15.8,10,50,53,10,1006.84,41,17.43,1602,2511,-23,-3,20,-85
2003,0,78.22280884,15.65257263,15.7,10,50,54,10,1006.83,41,17.41,1602,2515,-23,-3,20,-86
2004,0,78.22280884,15.65258026,15.9,10,50,55,10,1006.83,41,17.39,1603,2501,-23,-3,20,-85
2005,0,78.22280884,15.65259171,15.9,10,50,56,10,1006.85,41,17.37,1604,2509,-23,-3,20,-86
2006,0,78.22280884,15.65259552,15.8,10,50,57,10,1006.85,41,17.35,1605,2510,-23,-3,20,-86
2007,0,78.22280884,15.65258789,15.8,10,50,58,9,1006.85,41,17.33,1605,2511,-23,-3,20,-86
2008,0,78.22280884,15.65259171,15.9,10,50,59,9,1006.84,41,17.31,1604,2508,-23,-3,20,-85
2009,0,78.22280884,15.65259933,15.7,10,51,0,9,1006.86,41,17.29,1604,2509,-23,-3,20,-85
2010,0,78.22280884,15.65258789,15.6,10,51,1,9,1006.85,41,17.27,1604,2509,-23,-3,20,-85
2011,0,78.22280884,15.65259171,15.6,10,51,2,9,1006.84,41,17.25,1603,2511,-23,-3,20,-85
2012,0,78.22280884,15.65259552,15.5,10,51,3,9,1006.84,41,17.23,1604,2512,-23,-3,20,-85
2013,0,78.22280884,15.65259933,15.5,10,51,4,9,1006.85,41,17.21,1604,2499,-23,-3,20,-85
2014,0,78.22280884,15.65259933,15.5,10,51,5,9,1006.82,41,17.18,1604,2509,-23,-3,20,-86
2015,0,78.22280884,15.65259552,15.4,10,51,6,9,1006.82,41,17.17,1604,2511,-23,-3,20,-86
2016,0,78.22280884,15.65259552,15.5,10,51,7,9,1006.83,41,17.14,1605,2508,-23,-3,20,-85
2017,0,78.22280884,15.65260696,15.6,10,51,8,9,1006.84,41,17.13,1605,2509,-23,-3,20,-85
2018,0,78.22280884,15.65259933,15.4,10,51,9,9,1006.83,41,17.11,1606,2512,-23,-3,20,-86
2019,0,78.22280884,15.65259171,15.6,10,51,10,9,1006.81,41,17.09,1606,2511,-23,-3,20,-86
2020,0,78.22280884,15.65259933,15.5,10,51,11,9,1006.83,41,17.07,1606,2510,-23,-3,20,-85
2021,0,78.22280884,15.65260696,15.4,10,51,12,9,1006.82,41,17.05,1606,2510,-23,-3,20,-86
2022,0,78.22280884,15.65260315,15.2,10,51,13,9,1006.84,41,17.03,1607,2511,-23,-3,20,-85
2023,0,78.22280884,15.65260315,15.4,10,51,14,9,1006.84,41,17.01,1607,2509,-23,-3,20,-86
2024,0,78.22280884,15.65260696,15.3,10,51,15,9,1006.82,41,16.99,1608,2509,-23,-3,20,-85
2025,0,78.22280884,15.65260696,15.2,10,51,16,9,1006.8,41,16.97,1607,2511,-23,-3,20,-85
2026,0,78.22280884,15.65261078,15.4,10,51,17,9,1006.83,41,16.96,1607,2509,-23,-3,20,-85
2027,0,78.22280884,15.65261841,15.4,10,51,18,9,1006.85,41,16.94,1609,2509,-23,-3,20,-84
2028,0,78.22280884,15.65262222,15.4,10,51,19,9,1006.82,42,16.91,1610,2514,-23,-3,20,-85
2029,0,78.22280884,15.65261841,15.3,10,51,20,9,1006.82,42,16.9,1610,2509,-23,-3,20,-85
2030,0,78.22280884,15.65261841,15.4,10,51,21,9,1006.82,42,16.87,1611,2510,-23,-3,20,-86
2031,0,78.22280884,15.65262985,15.5,10,51,22,9,1006.85,42,16.86,1612,2510,-23,-3,20,-85
2032,0,78.22280884,15.65263748,15.5,10,51,23,9,1006.82,42,16.84,1612,2510,-23,-3,20,-85
2033,0,78.22280884,15.65263367,15.3,10,51,24,9,1006.84,42,16.82,1613,2508,-23,-3,20,-85
2034,0,78.22280884,15.65263367,15.4,10,51,25,9,1006.85,42,16.8,1613,2506,-23,-3,20,-85
2035,0,78.22280884,15.65263367,15.4,10,51,26,9,1006.85,42,16.79,1613,2510,-23,-3,20,-85
2036,0,78.22280884,15.65263748,15.4,10,51,27,9,1006.86,42,16.76,1614,2518,-23,-3,20,-85
2037,0,78.22280884,15.65263748,15.5,10,51,28,9,1006.83,42,16.74,1614,2525,-23,-3,20,-86
2038,0,78.22283936,15.65266037,15.7,10,51,29,9,1006.84,42,16.73,1614,2510,-23,-3,20,-85
2039,0,78.22283936,15.65266037,15.7,10,51,30,9,1006.82,42,16.71,1614,2508,-23,-3,20,-86
2040,0,78.22283936,15.65265656,15.8,10,51,31,9,1006.84,42,16.7,1615,2509,-23,-3,20,-85
2041,0,78.22283936,15.65266418,15.8,10,51,32,9,1006.84,42,16.68,1615,2510,-23,-3,20,-85
2042,0,78.22283936,15.65266037,15.8,10,51,33,9,1006.82,42,16.66,1615,2509,-23,-3,20,-85
2043,0,78.22283936,15.65266418,15.8,10,51,34,9,1006.85,42,16.64,1614,2509,-23,-3,20,-86
2044,0,78.22283936,15.65265656,15.7,10,51,35,9,1006.83,42,16.62,1614,2509,-23,-3,20,-86
2045,0,78.22283936,15.65266037,15.7,10,51,36,9,1006.83,42,16.61,1614,2510,-23,-3,20,-86
2046,0,78.22283936,15.65266418,15.7,10,51,37,9,1006.84,42,16.59,1612,2510,-23,-3,20,-85
2047,0,78.22283936,15.65266800,15.6,10,51,38,9,1006.85,42,16.58,1612,2511,-23,-3,20,-86
2048,0,78.22283936,15.65267181,15.6,10,51,39,9,1006.86,42,16.55,1612,2509,-23,-3,20,-86
2049,0,78.22283936,15.65267563,15.6,10,51,40,10,1006.85,42,16.53,1612,2509,-23,-3,20,-86
2050,0,78.22283936,15.65267181,15.6,10,51,41,10,1006.84,42,16.52,1612,2510,-23,-3,20,-85
2051,0,78.22283936,15.65267563,15.5,10,51,42,10,1006.81,42,16.5,1612,2510,-23,-3,20,-85
2052,0,78.22283936,15.65267944,15.5,10,51,43,10,1006.82,42,16.48,1612,2512,-23,-3,20,-86
2053,0,78.22283936,15.65268326,15.5,10,51,44,10,1006.84,42,16.47,1612,2510,-23,-3,20,-85
2054,0,78.22283936,15.65268707,15.5,10,51,45,10,1006.82,42,16.45,1612,2509,-23,-3,20,-85
2055,0,78.22283936,15.65267563,15.5,10,51,46,10,1006.84,42,16.43,1612,2511,-23,-3,20,-85
2056,0,78.22283936,15.65267181,15.5,10,51,47,10,1006.8,42,16.42,1612,2509,-23,-3,20,-86
2057,0,78.22283936,15.65268326,15.5,10,51,48,10,1006.82,42,16.4,1612,2509,-23,-3,20,-85
2058,0,78.22283936,15.65266800,15.5,10,51,49,10,1006.83,42,16.38,1613,2511,-23,-3,20,-85
2059,0,78.22283936,15.65266037,15.5,10,51,50,10,1006.84,42,16.36,1612,2511,-23,-3,20,-85
2060,0,78.22283936,15.65266800,15.6,10,51,51,10,1006.83,42,16.35,1612,2508,-23,-3,20,-85
2061,0,78.22283936,15.65267563,15.6,10,51,52,10,1006.82,42,16.33,1612,2510,-23,-3,20,-86
2062,0,78.22283936,15.65267563,15.5,10,51,53,10,1006.82,42,16.32,1611,2519,-23,-3,20,-86
2063,0,78.22283936,15.65268326,15.5,10,51,54,10,1006.79,42,16.3,1609,2510,-23,-3,20,-85
2064,0,78.22283936,15.65268707,15.5,10,51,55,10,1006.8,42,16.29,1607,2511,-23,-3,20,-85
2065,0,78.22283936,15.65268326,15.3,10,51,56,10,1006.81,42,16.28,1605,2510,-23,-3,20,-86
2066,0,78.22283936,15.65269089,15.3,10,51,57,10,1006.8,42,16.27,1601,2509,-23,-3,20,-85
2067,0,78.22283936,15.65269470,15.3,10,51,58,10,1006.81,42,16.26,1598,2510,-23,-3,20,-85
2068,0,78.22283936,15.65268326,15.4,10,51,59,10,1006.79,42,16.25,1596,2510,-23,-3,20,-85
2069,0,78.22283936,15.65269089,15.3,10,52,0,10,1006.79,43,16.23,1595,2509,-23,-3,20,-86
2070,0,78.22283936,15.65268707,15.3,10,52,1,10,1006.78,43,16.22,1594,2514,-23,-3,20,-85
2071,0,78.22283936,15.65269089,15.3,10,52,2,10,1006.78,43,16.2,1592,2512,-23,-3,20,-86
2072,0,78.22283936,15.65269470,15.3,10,52,3,10,1006.78,43,16.19,1593,2511,-23,-3,20,-86
2073,0,78.22283936,15.65270996,15.1,10,52,4,10,1006.79,43,16.18,1592,2511,-23,-3,20,-86
2074,0,78.22283936,15.65270996,15.1,10,52,5,10,1006.79,43,16.17,1589,2510,-23,-3,20,-86
2075,0,78.22283936,15.65270996,15.1,10,52,6,10,1006.82,43,16.15,1584,2509,-23,-3,20,-87
2076,0,78.22283936,15.65270615,15.1,10,52,7,10,1006.83,43,16.13,1583,2511,-23,-3,20,-87
2077,0,78.22283936,15.65270615,15.1,10,52,8,10,1006.83,43,16.12,1584,2510,-23,-3,20,-86
2078,0,78.22283936,15.65270615,15.1,10,52,9,10,1006.81,43,16.1,1584,2524,-23,-3,20,-86
2079,0,78.22283936,15.65271378,15.0,10,52,10,10,1006.82,43,16.09,1581,2509,-23,-3,20,-86
2080,0,78.22283936,15.65271759,14.9,10,52,11,10,1006.81,43,16.07,1582,2510,-23,-3,20,-86
2081,0,78.22283936,15.65271759,14.9,10,52,12,10,1006.81,43,16.06,1582,2511,-23,-3,20,-86
2082,0,78.22283936,15.65271759,14.9,10,52,13,10,1006.8,43,16.05,1582,2511,-23,-3,20,-85
2083,0,78.22283936,15.65271759,14.9,10,52,14,10,1006.82,43,16.04,1582,2510,-23,-3,20,-85
2084,0,78.22283936,15.65272522,14.9,10,52,15,10,1006.82,43,16.02,1582,2509,-23,-3,20,-86
2085,0,78.22283936,15.65272141,14.9,10,52,16,10,1006.85,43,16.02,1583,2510,-23,-3,20,-86
2086,0,78.22283936,15.65272903,14.8,10,52,17,10,1006.8,43,16.0,1583,2511,-23,-3,20,-86
2087,0,78.22283936,15.65273666,14.8,10,52,18,10,1006.83,43,16.0,1583,2506,-23,-3,20,-86
2088,0,78.22283936,15.65273666,14.8,10,52,19,10,1006.82,43,15.98,1584,2511,-23,-3,20,-85
2089,0,78.22283936,15.65273666,14.8,10,52,20,10,1006.79,43,15.97,1585,2510,-23,-3,20,-86
2090,0,78.22283936,15.65273666,14.9,10,52,21,9,1006.79,43,15.96,1584,2508,-23,-3,20,-85
2091,0,78.22283936,15.65273666,15.0,10,52,22,9,1006.79,43,15.95,1586,2510,-23,-3,20,-86
2092,0,78.22283936,15.65272903,14.8,10,52,23,9,1006.8,43,15.95,1587,2507,-23,-3,20,-85
2093,0,78.22283936,15.65274048,14.8,10,52,24,9,1006.8,43,15.93,1587,2509,-23,-3,20,-86
2094,0,78.22283936,15.65274048,14.8,10,52,25,10,1006.77,43,15.92,1587,2510,-23,-3,20,-85
2095,0,78.22283936,15.65274048,14.8,10,52,26,10,1006.8,43,15.92,1589,2510,-23,-3,20,-86
2096,0,78.22283936,15.65275192,14.9,10,52,27,9,1006.81,43,15.9,1589,2508,-23,-3,20,-85
2097,0,78.22283936,15.65275192,14.8,10,52,28,10,1006.78,43,15.89,1587,2510,-23,-3,20,-85
2098,0,78.22283936,15.65274811,14.8,10,52,29,10,1006.76,43,15.88,1586,2510,-23,-3,20,-85
2099,0,78.22283936,15.65276718,14.8,10,52,30,10,1006.76,43,15.87,1586,2510,-23,-3,20,-84
2100,0,78.22283936,15.65275574,14.8,10,52,31,10,1006.78,43,15.86,1586,2511,-23,-3,20,-84
2101,0,78.22283936,15.65276337,14.7,10,52,32,10,1006.79,43,15.85,1585,2510,-23,-3,20,-83
2102,0,78.22283936,15.65276337,14.7,10,52,33,10,1006.79,43,15.84,1583,2509,-23,-3,20,-84
2103,0,78.22283936,15.65276337,14.8,10,52,34,10,1006.81,43,15.83,1577,2510,-23,-3,20,-84
2104,0,78.22283936,15.65276337,14.8,10,52,35,10,1006.82,43,15.82,1574,2505,-23,-3,20,-84
2105,0,78.22283936,15.65275574,14.7,10,52,36,10,1006.81,43,15.8,1573,2510,-23,-3,20,-85
2106,0,78.22283936,15.65276718,14.9,10,52,37,10,1006.84,44,15.78,1573,2511,-23,-3,20,-85
2107,0,78.22283936,15.65277100,14.8,10,52,38,9,1006.82,44,15.77,1572,2509,-23,-3,20,-85
2108,0,78.22283936,15.65276337,14.7,10,52,39,11,1006.84,44,15.76,1572,2510,-23,-3,20,-86
2109,0,78.22283936,15.65275955,14.5,10,52,40,11,1006.85,44,15.75,1572,2510,-23,-3,20,-86
2110,0,78.22283936,15.65276718,14.6,10,52,41,11,1006.84,44,15.74,1572,2511,-23,-3,20,-85
2111,0,78.22283936,15.65275955,14.5,10,52,42,11,1006.86,44,15.72,1570,2508,-23,-3,20,-86
2112,0,78.22283936,15.65276337,14.5,10,52,43,11,1006.83,44,15.71,1570,2508,-23,-3,20,-85
2113,0,78.22283936,15.65275955,14.3,10,52,44,11,1006.86,44,15.69,1570,2509,-23,-3,20,-86
2114,0,78.22283936,15.65275192,14.3,10,52,45,11,1006.83,44,15.69,1570,2507,-23,-3,20,-86
2115,0,78.22283936,15.65275574,14.4,10,52,46,11,1006.8,44,15.68,1569,2509,-23,-3,20,-85
2116,0,78.22283936,15.65275955,14.4,10,52,47,11,1006.82,44,15.66,1571,2508,-23,-3,20,-86
2117,0,78.22283936,15.65275192,14.5,10,52,48,11,1006.85,44,15.66,1571,2511,-23,-3,20,-86
2118,0,78.22283936,15.65275192,14.5,10,52,49,11,1006.79,44,15.65,1571,2509,-23,-3,20,-86
2119,0,78.22283936,15.65275192,14.6,10,52,50,11,1006.78,44,15.63,1573,2509,-23,-3,20,-85
2120,0,78.22283936,15.65275955,14.6,10,52,51,11,1006.84,44,15.63,1573,2509,-23,-3,20,-86
2121,0,78.22283936,15.65276718,14.6,10,52,53,11,1006.82,44,15.62,1573,2511,-23,-3,20,-87
2122,0,78.22283936,15.65277100,14.5,10,52,54,10,1006.81,44,15.61,1574,2510,-23,-3,20,-86
2123,0,78.22283936,15.65277100,14.5,10,52,54,10,1006.81,44,15.6,1574,2511,-23,-3,20,-86
2124,0,78.22283936,15.65276718,14.5,10,52,56,10,1006.82,44,15.6,1575,2508,-23,-3,20,-86
2125,0,78.22283936,15.65275574,14.5,10,52,57,11,1006.82,44,15.59,1577,2508,-23,-3,20,-86
2126,0,78.22283936,15.65275955,14.5,10,52,58,10,1006.8,44,15.58,1578,2507,-23,-3,20,-85
2127,0,78.22283936,15.65275955,14.5,10,52,58,10,1006.82,44,15.57,1576,2507,-23,-3,20,-85
2128,0,78.22283936,15.65275192,14.5,10,53,0,11,1006.83,44,15.55,1575,2507,-23,-3,20,-87
2129,0,78.22283936,15.65275192,14.5,10,53,1,11,1006.81,44,15.54,1575,2508,-23,-3,20,-87
2130,0,78.22283936,15.65275192,14.5,10,53,1,11,1006.82,44,15.54,1575,2509,-23,-3,20,-87
2131,0,78.22283936,15.65277100,14.5,10,53,3,11,1006.82,44,15.54,1576,2500,-23,-3,20,-86
2132,0,78.22283936,15.65276718,14.5,10,53,4,11,1006.84,44,15.52,1577,2503,-23,-3,20,-86
2133,0,78.22283936,15.65276337,14.5,10,53,5,11,1006.83,44,15.51,1576,2519,-23,-3,20,-85
2134,0,78.22283936,15.65276718,14.7,10,53,6,11,1006.79,44,15.51,1576,2510,-23,-3,20,-85
2135,0,78.22283936,15.65277481,14.6,10,53,7,11,1006.84,44,15.5,1576,2509,-23,-3,20,-86
2136,0,78.22283936,15.65276718,14.5,10,53,8,11,1006.83,44,15.5,1576,2509,-23,-3,20,-83
2137,0,78.22283936,15.65276718,14.6,10,53,9,11,1006.86,44,15.48,1577,2509,-23,-3,20,-85
2138,0,78.22283936,15.65275574,14.6,10,53,10,11,1006.83,44,15.48,1577,2509,-23,-3,20,-85
2139,0,78.22283936,15.65277100,14.6,10,53,11,11,1006.83,44,15.47,1577,2510,-23,-3,20,-85
2140,0,78.22283936,15.65278625,14.6,10,53,12,11,1006.85,44,15.47,1574,2509,-23,-3,20,-85
2141,0,78.22283936,15.65278625,14.7,10,53,13,11,1006.84,44,15.45,1573,2508,-23,-3,20,-85
2142,0,78.22283936,15.65277863,14.6,10,53,14,11,1006.85,44,15.45,1572,2514,-23,-3,20,-85
2143,0,78.22283936,15.65278625,14.7,10,53,15,11,1006.88,44,15.44,1570,2509,-23,-3,20,-85
2144,0,78.22283936,15.65278244,14.7,10,53,16,11,1006.86,44,15.43,1567,2508,-23,-3,20,-85
2145,0,78.22283936,15.65277863,14.6,10,53,17,11,1006.83,44,15.41,1566,2509,-23,-3,20,-85
2146,0,78.22283936,15.65277863,14.7,10,53,18,11,1006.82,44,15.41,1568,2508,-23,-3,20,-86
2147,0,78.22283936,15.65276718,14.5,10,53,19,11,1006.83,45,15.41,1566,2506,-23,-3,20,-85
2148,0,78.22283936,15.65276718,14.5,10,53,20,10,1006.82,45,15.4,1564,2508,-23,-3,20,-86
2149,0,78.22283936,15.65276337,14.5,10,53,21,10,1006.82,45,15.4,1561,2509,-23,-3,20,-86
2150,0,78.22283936,15.65275574,14.5,10,53,22,10,1006.84,45,15.38,1560,2508,-23,-3,20,-85
2151,0,78.22283936,15.65275574,14.4,10,53,23,10,1006.82,45,15.38,1559,2508,-23,-3,20,-85
2152,0,78.22283936,15.65275192,14.4,10,53,24,10,1006.83,45,15.37,1560,2504,-23,-3,20,-86
2153,0,78.22283936,15.65276337,14.6,10,53,25,10,1006.81,45,15.36,1559,2511,-23,-3,20,-85
2154,0,78.22283936,15.65275955,14.5,10,53,26,10,1006.84,45,15.36,1559,2508,-23,-3,20,-85
2155,0,78.22283936,15.65275955,14.5,10,53,27,10,1006.86,45,15.35,1561,2510,-23,-3,20,-86
2156,0,78.22283936,15.65275955,14.5,10,53,28,10,1006.86,45,15.35,1563,2509,-23,-3,20,-85
2157,0,78.22283936,15.65276337,14.5,10,53,29,10,1006.8,45,15.35,1564,2508,-23,-3,20,-86
2158,0,78.22283936,15.65276337,14.5,10,53,30,10,1006.85,45,15.35,1564,2508,-23,-3,20,-85
2159,0,78.22283936,15.65276337,14.5,10,53,31,9,1006.84,45,15.34,1565,2510,-23,-3,20,-85
2160,0,78.22283936,15.65277863,14.7,10,53,32,9,1006.85,45,15.33,1565,2516,-23,-3,20,-85
2161,0,78.22283936,15.65277481,14.7,10,53,33,9,1006.84,45,15.32,1564,2503,-23,-3,20,-85
2162,0,78.22283936,15.65276718,14.6,10,53,34,9,1006.84,45,15.32,1564,2508,-23,-3,20,-85
2163,0,78.22283936,15.65276337,14.6,10,53,35,9,1006.82,46,15.31,1564,2509,-23,-3,20,-86
2164,0,78.22283936,15.65276337,14.6,10,53,36,9,1006.8,46,15.31,1564,2509,-23,-3,20,-86
2165,0,78.22283936,15.65275955,14.6,10,53,37,9,1006.84,46,15.3,1564,2508,-23,-3,20,-85
2166,0,78.22283936,15.65275192,14.5,10,53,38,9,1006.81,46,15.29,1564,2508,-23,-3,20,-86
2167,0,78.22283936,15.65274811,14.4,10,53,39,9,1006.84,46,15.3,1566,2507,-23,-3,20,-85
2168,0,78.22283936,15.65274811,14.4,10,53,40,10,1006.83,46,15.29,1566,2518,-23,-3,20,-85
2169,0,78.22283936,15.65275574,14.5,10,53,41,10,1006.85,46,15.29,1566,2508,-23,-3,20,-85
2170,0,78.22283936,15.65275192,14.3,10,53,42,10,1006.83,46,15.29,1567,2509,-23,-3,20,-85
2171,0,78.22283936,15.65274048,14.2,10,53,43,10,1006.84,46,15.29,1568,2508,-23,-3,20,-84
2172,0,78.22283936,15.65274429,14.2,10,53,44,10,1006.83,46,15.28,1569,2509,-23,-3,20,-86
2173,0,78.22283936,15.65275574,14.4,10,53,45,10,1006.85,46,15.28,1569,2509,-23,-3,20,-86
2174,0,78.22283936,15.65274429,14.3,10,53,46,10,1006.83,46,15.28,1570,2509,-23,-3,20,-85
2175,0,78.22283936,15.65273666,14.1,10,53,47,10,1006.82,47,15.27,1571,2508,-23,-3,20,-85
2176,0,78.22283936,15.65273666,14.2,10,53,48,10,1006.81,47,15.26,1572,2520,-23,-3,20,-85
2177,0,78.22283936,15.65273285,14.1,10,53,49,9,1006.81,47,15.25,1573,2509,-23,-3,20,-85
2178,0,78.22283936,15.65272522,14.1,10,53,50,9,1006.82,47,15.25,1574,2509,-23,-3,20,-85
2179,0,78.22283936,15.65272522,14.1,10,53,51,9,1006.85,47,15.25,1575,2509,-23,-3,20,-85
2180,0,78.22283936,15.65272522,14.0,10,53,52,9,1006.85,47,15.25,1575,2508,-23,-3,20,-85
2181,0,78.22283936,15.65272141,14.0,10,53,53,9,1006.85,47,15.24,1575,2507,-23,-3,20,-85
2182,0,78.22283936,15.65271759,14.0,10,53,54,10,1006.83,47,15.24,1575,2507,-23,-3,20,-85
2183,0,78.22283936,15.65272141,14.1,10,53,55,10,1006.83,47,15.25,1574,2508,-23,-3,20,-85
2184,0,78.22283936,15.65272141,14.2,10,53,56,9,1006.86,47,15.25,1575,2495,-23,-3,20,-84
2185,0,78.22283936,15.65272903,14.1,10,53,57,9,1006.82,47,15.24,1574,2508,-23,-3,20,-85
2186,0,78.22283936,15.65272522,14.2,10,53,58,9,1006.84,47,15.22,1575,2509,-23,-3,20,-85
2187,0,78.22283936,15.65272903,14.2,10,53,59,9,1006.82,47,15.22,1575,2510,-23,-3,20,-85
2188,0,78.22283936,15.65271759,14.2,10,54,0,9,1006.84,47,15.22,1575,2507,-23,-3,20,-85
2189,0,78.22283936,15.65271378,14.1,10,54,1,10,1006.81,47,15.21,1576,2509,-23,-3,20,-85
2190,0,78.22283936,15.65272522,14.2,10,54,2,10,1006.82,47,15.21,1576,2508,-23,-3,20,-84
2191,0,78.22283936,15.65272141,14.2,10,54,3,10,1006.83,47,15.2,1576,2507,-23,-3,20,-85
2192,0,78.22283936,15.65271378,14.0,10,54,4,10,1006.82,47,15.19,1576,2512,-23,-3,20,-84
2193,0,78.22283936,15.65272141,14.2,10,54,5,10,1006.83,47,15.19,1576,2508,-23,-3,20,-85
2194,0,78.22283936,15.65272141,14.2,10,54,6,10,1006.82,47,15.19,1575,2507,-23,-3,20,-85
2195,0,78.22283936,15.65270996,14.0,10,54,7,10,1006.83,47,15.18,1576,2508,-23,-3,20,-84
2196,0,78.22283936,15.65271378,14.1,10,54,8,10,1006.84,47,15.18,1577,2508,-23,-3,20,-84
2197,0,78.22283936,15.65271759,14.1,10,54,9,10,1006.8,47,15.18,1577,2508,-23,-3,20,-85
2198,0,78.22283936,15.65271378,14.1,10,54,10,10,1006.82,47,15.18,1577,2506,-23,-3,20,-84
2199,0,78.22283936,15.65270996,14.1,10,54,11,10,1006.83,47,15.18,1576,2508,-23,-3,20,-85
2200,0,78.22283936,15.65271759,14.2,10,54,12,10,1006.82,47,15.17,1575,2508,-23,-3,20,-86
2201,0,78.22283936,15.65271378,14.1,10,54,13,10,1006.81,47,15.17,1574,2507,-23,-3,20,-85
2202,0,78.22283936,15.65269852,13.9,10,54,14,10,1006.82,47,15.17,1574,2508,-23,-3,20,-85
2203,0,78.22283936,15.65270615,14.1,10,54,15,10,1006.78,47,15.16,1572,2508,-23,-3,20,-85
2204,0,78.22283936,15.65271378,14.1,10,54,16,10,1006.83,47,15.15,1572,2509,-23,-3,20,-85
2205,0,78.22283936,15.65269852,14.0,10,54,17,10,1006.83,47,15.15,1569,2507,-23,-3,20,-85
2206,0,78.22283936,15.65270233,13.9,10,54,18,10,1006.83,47,15.14,1569,2506,-23,-3,20,-85
2207,0,78.22283936,15.65270996,14.0,10,54,19,10,1006.83,47,15.13,1569,2506,-23,-3,20,-85
2208,0,78.22283936,15.65271378,14.0,10,54,20,10,1006.82,47,15.13,1568,2509,-23,-3,20,-85
2209,0,78.22283936,15.65271378,14.1,10,54,21,10,1006.82,47,15.12,1568,2508,-23,-3,20,-84
2210,0,78.22283936,15.65271378,14.1,10,54,22,10,1006.8,47,15.11,1568,2508,-23,-3,20,-84
2211,0,78.22283936,15.65270233,14.0,10,54,23,10,1006.81,47,15.1,1567,2506,-23,-3,20,-84
2212,0,78.22280884,15.65269470,13.9,10,54,24,10,1006.82,47,15.1,1567,2507,-23,-3,20,-84
2213,0,78.22283936,15.65269852,14.0,10,54,25,10,1006.83,47,15.09,1567,2508,-23,-3,20,-85
2214,0,78.22283936,15.65270615,14.1,10,54,26,10,1006.8,47,15.09,1567,2506,-23,-3,20,-85
2215,0,78.22283936,15.65269852,14.0,10,54,27,10,1006.82,47,15.08,1567,2505,-23,-3,20,-85
2216,0,78.22283936,15.65269852,14.0,10,54,28,10,1006.84,47,15.08,1567,2506,-23,-3,20,-84
2217,0,78.22283936,15.65270615,14.1,10,54,29,10,1006.85,47,15.06,1568,2506,-23,-3,20,-85
2218,0,78.22283936,15.65270996,14.1,10,54,30,10,1006.84,47,15.06,1568,2511,-23,-3,20,-85
2219,0,78.22283936,15.65271378,14.2,10,54,31,11,1006.84,47,15.04,1568,2506,-23,-3,20,-85
2220,0,78.22283936,15.65271378,14.1,10,54,32,11,1006.86,47,15.04,1569,2508,-23,-3,20,-84
2221,0,78.22283936,15.65270615,14.0,10,54,33,11,1006.83,47,15.03,1569,2506,-23,-3,20,-86
2222,0,78.22280884,15.65269852,13.9,10,54,34,11,1006.81,47,15.02,1568,2508,-23,-3,20,-86
2223,0,78.22280884,15.65270233,14.0,10,54,35,11,1006.82,47,15.02,1568,2508,-23,-3,20,-86
2224,0,78.22283936,15.65270615,14.1,10,54,36,11,1006.82,48,15.02,1566,2509,-23,-3,20,-85
2225,0,78.22280884,15.65269470,14.0,10,54,37,11,1006.84,48,15.01,1565,2506,-23,-3,20,-86
2226,0,78.22280884,15.65269852,14.0,10,54,38,11,1006.83,48,15.01,1567,2509,-23,-3,20,-85
2227,0,78.22280884,15.65269470,14.0,10,54,39,10,1006.84,48,15.0,1566,2501,-23,-3,20,-86
2228,0,78.22280884,15.65269089,14.0,10,54,40,10,1006.83,48,14.99,1567,2507,-23,-3,20,-85
2229,0,78.22280884,15.65269089,14.0,10,54,41,10,1006.82,48,14.97,1566,2508,-23,-3,20,-85
2230,0,78.22280884,15.65269470,14.0,10,54,42,10,1006.82,48,14.97,1565,2508,-23,-3,20,-85
2231,0,78.22280884,15.65269470,14.0,10,54,43,10,1006.82,48,14.96,1565,2506,-23,-3,20,-86
2232,0,78.22280884,15.65267563,13.9,10,54,44,10,1006.82,48,14.95,1565,2506,-23,-3,20,-85
2233,0,78.22280884,15.65268326,13.9,10,54,45,10,1006.83,48,14.93,1565,2508,-23,-3,20,-85
2234,0,78.22280884,15.65269089,14.0,10,54,46,10,1006.81,48,14.92,1567,2506,-23,-3,20,-86
2235,0,78.22280884,15.65269470,14.0,10,54,47,10,1006.84,48,14.92,1567,2520,-23,-3,20,-85
2236,0,78.22280884,15.65269470,14.0,10,54,48,10,1006.83,48,14.9,1566,2508,-23,-3,20,-85
2237,0,78.22280884,15.65267563,13.9,10,54,49,10,1006.82,48,14.89,1565,2507,-23,-3,20,-85
2238,0,78.22280884,15.65267181,13.9,10,54,50,10,1006.83,48,14.89,1565,2507,-23,-3,20,-86
2239,0,78.22280884,15.65267181,13.9,10,54,51,10,1006.82,48,14.88,1566,2508,-23,-3,20,-86
2240,0,78.22280884,15.65267181,13.9,10,54,52,10,1006.82,48,14.88,1565,2509,-23,-3,20,-86
2241,0,78.22280884,15.65267181,13.9,10,54,53,10,1006.83,48,14.86,1566,2507,-23,-3,20,-86
2242,0,78.22280884,15.65266418,13.9,10,54,54,10,1006.82,48,14.86,1566,2508,-23,-3,20,-86
2243,0,78.22280884,15.65267944,14.0,10,54,55,10,1006.81,48,14.84,1567,2509,-23,-3,20,-85
2244,0,78.22280884,15.65268707,14.1,10,54,56,10,1006.81,48,14.83,1566,2507,-23,-3,20,-85
2245,0,78.22280884,15.65269089,14.1,10,54,57,10,1006.82,48,14.83,1566,2509,-23,-3,20,-85
2246,0,78.22280884,15.65269852,14.2,10,54,58,10,1006.83,48,14.82,1566,2506,-23,-3,20,-86
2247,0,78.22280884,15.65269470,14.1,10,54,59,10,1006.84,48,14.82,1565,2507,-23,-3,20,-86
2248,0,78.22280884,15.65268707,14.1,10,55,0,10,1006.8,48,14.81,1565,2507,-23,-3,20,-86
2249,0,78.22280884,15.65269852,14.2,10,55,1,10,1006.85,48,14.8,1565,2507,-23,-3,20,-86
2250,0,78.22280884,15.65269089,14.2,10,55,2,10,1006.83,48,14.79,1565,2507,-23,-3,20,-85
2251,0,78.22280884,15.65268707,14.1,10,55,3,10,1006.84,48,14.78,1565,2508,-23,-3,20,-85
2252,0,78.22280884,15.65269470,14.2,10,55,4,10,1006.86,48,14.77,1565,2507,-23,-3,20,-85
2253,0,78.22280884,15.65269852,14.2,10,55,5,10,1006.81,48,14.76,1564,2505,-23,-3,20,-85
2254,0,78.22280884,15.65268707,14.2,10,55,6,11,1006.85,48,14.75,1565,2521,-23,-3,20,-85
2255,0,78.22280884,15.65268707,14.2,10,55,7,11,1006.85,48,14.74,1565,2510,-23,-3,20,-85
2256,0,78.22280884,15.65269470,14.3,10,55,8,11,1006.88,48,14.73,1564,2508,-23,-3,20,-85
2257,0,78.22280884,15.65269089,14.2,10,55,9,11,1006.89,48,14.72,1564,2506,-23,-3,20,-85
2258,0,78.22280884,15.65268326,14.2,10,55,10,11,1006.86,48,14.72,1565,2508,-23,-3,20,-85
2259,0,78.22280884,15.65268707,14.2,10,55,11,10,1006.88,48,14.71,1565,2508,-23,-3,20,-85
2260,0,78.22280884,15.65269470,14.3,10,55,12,10,1006.87,48,14.7,1564,2506,-23,-3,20,-85
2261,0,78.22280884,15.65268707,14.2,10,55,13,10,1006.87,48,14.69,1564,2507,-23,-3,20,-86
2262,0,78.22280884,15.65269089,14.2,10,55,14,10,1006.86,48,14.67,1564,2498,-23,-3,20,-86
2263,0,78.22280884,15.65269852,14.3,10,55,15,10,1006.88,47,14.67,1563,2507,-23,-3,20,-85
2264,0,78.22280884,15.65268326,14.2,10,55,16,10,1006.84,47,14.66,1561,2505,-23,-3,20,-85
2265,0,78.22280884,15.65268707,14.2,10,55,17,10,1006.86,47,14.64,1562,2508,-23,-3,20,-85
2266,0,78.22280884,15.65268707,14.2,10,55,18,10,1006.86,47,14.63,1562,2508,-23,-3,20,-85
2267,0,78.22280884,15.65269089,14.2,10,55,19,9,1006.86,47,14.62,1562,2506,-23,-3,20,-85
2268,0,78.22280884,15.65268707,14.2,10,55,20,9,1006.88,47,14.61,1562,2506,-23,-3,20,-86
2269,0,78.22280884,15.65269470,14.3,10,55,21,9,1006.87,47,14.6,1561,2507,-23,-3,20,-86
2270,0,78.22280884,15.65270615,14.4,10,55,22,9,1006.85,47,14.59,1558,2506,-23,-3,20,-86
2271,0,78.22280884,15.65270996,14.6,10,55,23,10,1006.86,47,14.58,1559,2507,-23,-3,20,-86
2272,0,78.22280884,15.65270615,14.6,10,55,24,10,1006.88,47,14.58,1561,2508,-23,-3,20,-86
2273,0,78.22280884,15.65269470,14.5,10,55,25,10,1006.84,47,14.57,1561,2507,-23,-3,20,-85
2274,0,78.22280884,15.65267563,14.4,10,55,26,10,1006.85,47,14.56,1563,2508,-23,-3,20,-86
2275,0,78.22280884,15.65267181,14.3,10,55,27,10,1006.83,47,14.55,1563,2508,-23,-3,20,-86
2276,0,78.22280884,15.65266418,14.3,10,55,28,10,1006.84,47,14.54,1564,2507,-23,-3,20,-86
2277,0,78.22280884,15.65265274,14.2,10,55,29,10,1006.82,47,14.53,1564,2508,-23,-3,20,-86
2278,0,78.22280884,15.65264893,14.2,10,55,30,10,1006.85,47,14.53,1566,2508,-23,-3,20,-87
2279,0,78.22280884,15.65265274,14.2,10,55,31,10,1006.87,47,14.52,1567,2509,-23,-3,20,-85
2280,0,78.22280884,15.65264511,14.1,10,55,32,10,1006.86,47,14.52,1567,2509,-23,-3,20,-86
2281,0,78.22280884,15.65264511,14.2,10,55,33,10,1006.83,47,14.5,1568,2509,-23,-3,20,-87
2282,0,78.22280884,15.65264511,14.2,10,55,34,9,1006.82,47,14.49,1570,2507,-23,-3,20,-86
2283,0,78.22280884,15.65264130,14.2,10,55,35,10,1006.82,47,14.49,1571,2505,-23,-3,20,-85
2284,0,78.22280884,15.65262222,14.2,10,55,36,9,1006.79,47,14.48,1571,2506,-23,-3,20,-86
2285,0,78.22280884,15.65260696,14.2,10,55,37,10,1006.8,47,14.47,1571,2506,-23,-3,20,-85
2286,0,78.22280884,15.65261078,14.2,10,55,38,10,1006.82,47,14.47,1571,2505,-23,-3,20,-86
2287,0,78.22280884,15.65259933,14.2,10,55,39,9,1006.83,47,14.46,1572,2507,-23,-3,20,-86
2288,0,78.22280884,15.65259933,14.2,10,55,40,10,1006.82,47,14.45,1572,2506,-23,-3,20,-85
2289,0,78.22280884,15.65260315,14.3,10,55,41,10,1006.81,47,14.44,1572,2507,-23,-3,20,-84
2290,0,78.22280884,15.65260315,14.3,10,55,42,10,1006.83,47,14.43,1572,2505,-23,-3,20,-85
2291,0,78.22280884,15.65259171,14.2,10,55,43,10,1006.85,47,14.43,1573,2508,-23,-3,20,-85
2292,0,78.22280884,15.65258408,14.1,10,55,44,10,1006.84,48,14.42,1575,2507,-23,-3,20,-85
2293,0,78.22280884,15.65258408,14.1,10,55,45,10,1006.84,48,14.42,1575,2507,-23,-3,20,-85
2294,0,78.22280884,15.65258408,14.1,10,55,46,10,1006.83,48,14.41,1575,2507,-23,-3,20,-85
2295,0,78.22280884,15.65259171,14.2,10,55,47,10,1006.83,48,14.4,1576,2508,-23,-3,20,-85
2296,0,78.22280884,15.65259171,14.2,10,55,48,10,1006.83,48,14.39,1576,2508,-23,-3,20,-85
2297,0,78.22280884,15.65259933,14.2,10,55,49,10,1006.84,48,14.38,1577,2514,-23,-3,20,-85
2298,0,78.22280884,15.65260315,14.2,10,55,50,11,1006.84,48,14.38,1578,2508,-23,-3,20,-85
2299,0,78.22280884,15.65259171,14.2,10,55,51,11,1006.83,48,14.37,1579,2505,-23,-3,20,-85
2300,0,78.22280884,15.65258789,14.2,10,55,52,11,1006.84,48,14.36,1581,2506,-23,-3,20,-85
2301,0,78.22280884,15.65259171,14.3,10,55,53,10,1006.82,48,14.35,1581,2506,-23,-3,20,-84
2302,0,78.22280884,15.65259552,14.3,10,55,54,11,1006.85,48,14.34,1582,2505,-23,-3,20,-86
2303,0,78.22280884,15.65258789,14.3,10,55,55,11,1006.82,48,14.34,1583,2506,-23,-3,20,-86
2304,0,78.22280884,15.65259171,14.3,10,55,56,11,1006.84,48,14.33,1585,2507,-23,-3,20,-85
2305,0,78.22280884,15.65258789,14.3,10,55,57,11,1006.85,48,14.32,1586,2505,-23,-3,20,-85
2306,0,78.22280884,15.65258026,14.3,10,55,58,11,1006.85,48,14.32,1586,2504,-23,-3,20,-85
2307,0,78.22280884,15.65257645,14.3,10,55,59,11,1006.87,48,14.31,1586,2503,-23,-3,20,-85
2308,0,78.22277832,15.65257645,14.3,10,56,0,11,1006.85,48,14.3,1586,2506,-23,-3,20,-84
2309,0,78.22277832,15.65256882,14.3,10,56,1,11,1006.84,48,14.29,1587,2508,-23,-3,20,-84
2310,0,78.22277832,15.65258026,14.4,10,56,2,11,1006.85,48,14.29,1589,2508,-23,-3,20,-84
2311,0,78.22277832,15.65258789,14.4,10,56,3,11,1006.85,48,14.27,1590,2507,-23,-3,20,-84
2312,0,78.22277832,15.65260696,14.4,10,56,4,11,1006.85,48,14.27,1592,2507,-23,-3,20,-84
2313,0,78.22277832,15.65259552,14.4,10,56,5,12,1006.86,48,14.26,1591,2508,-23,-3,20,-84
2314,0,78.22280884,15.65261078,14.5,10,56,6,12,1006.85,48,14.25,1593,2507,-23,-3,20,-84
2315,0,78.22277832,15.65260696,14.4,10,56,7,12,1006.87,48,14.24,1595,2508,-23,-3,20,-85
2316,0,78.22277832,15.65260696,14.4,10,56,8,12,1006.85,48,14.24,1596,2506,-23,-3,20,-85
2317,0,78.22277832,15.65260696,14.4,10,56,9,11,1006.86,48,14.24,1597,2507,-23,-3,20,-85
2318,0,78.22277832,15.65261078,14.5,10,56,10,11,1006.85,48,14.22,1598,2505,-23,-3,20,-85
2319,0,78.22277832,15.65261459,14.5,10,56,11,12,1006.86,48,14.22,1598,2505,-23,-3,20,-83
2320,0,78.22277832,15.65261841,14.5,10,56,12,10,1006.84,48,14.21,1598,2504,-23,-3,20,-85
2321,0,78.22277832,15.65262222,14.5,10,56,13,11,1006.86,48,14.21,1600,2507,-23,-3,20,-86
2322,0,78.22277832,15.65262604,14.5,10,56,14,11,1006.85,48,14.2,1601,2505,-23,-3,20,-85
2323,0,78.22277832,15.65262604,14.5,10,56,15,10,1006.84,48,14.2,1601,2506,-23,-3,20,-86
2324,0,78.22277832,15.65261841,14.4,10,56,16,10,1006.85,48,14.19,1602,2505,-23,-3,20,-85
2325,0,78.22277832,15.65261459,14.3,10,56,17,10,1006.85,48,14.19,1603,2507,-23,-3,20,-86
2326,0,78.22277832,15.65262222,14.5,10,56,18,10,1006.86,48,14.18,1604,2507,-23,-3,20,-85
2327,0,78.22277832,15.65262222,14.4,10,56,19,10,1006.86,48,14.17,1603,2506,-23,-3,20,-85
2328,0,78.22277832,15.65261459,14.3,10,56,20,10,1006.86,48,14.17,1604,2504,-23,-3,20,-86
2329,0,78.22277832,15.65261841,14.4,10,56,21,10,1006.87,48,14.17,1605,2506,-23,-3,20,-85
2330,0,78.22277832,15.65262222,14.5,10,56,22,10,1006.86,48,14.16,1606,2507,-23,-3,20,-85
2331,0,78.22277832,15.65262222,14.4,10,56,23,10,1006.86,48,14.16,1608,2508,-23,-3,20,-85
2332,0,78.22277832,15.65261841,14.3,10,56,24,10,1006.87,48,14.15,1606,2511,-23,-3,20,-85
2333,0,78.22277832,15.65262604,14.4,10,56,25,10,1006.84,48,14.14,1607,2507,-23,-3,20,-86
2334,0,78.22277832,15.65262985,14.4,10,56,26,10,1006.85,48,14.13,1608,2507,-23,-3,20,-85
2335,0,78.22277832,15.65262604,14.4,10,56,27,10,1006.86,48,14.13,1608,2505,-23,-3,20,-86
2336,0,78.22277832,15.65261841,14.3,10,56,28,11,1006.86,48,14.12,1607,2505,-23,-3,20,-85
2337,0,78.22277832,15.65262222,14.3,10,56,29,11,1006.86,48,14.12,1608,2505,-23,-3,20,-85
2338,0,78.22277832,15.65262985,14.4,10,56,30,11,1006.84,48,14.11,1608,2507,-23,-3,20,-86
2339,0,78.22277832,15.65263367,14.5,10,56,31,11,1006.85,48,14.11,1609,2502,-23,-3,20,-85
2340,0,78.22277832,15.65262604,14.4,10,56,32,11,1006.87,48,14.1,1607,2502,-23,-3,20,-85
2341,0,78.22277832,15.65261841,14.4,10,56,33,11,1006.85,48,14.1,1608,2503,-23,-3,20,-85
2342,0,78.22277832,15.65262985,14.5,10,56,34,11,1006.88,48,14.09,1607,2501,-23,-3,20,-86
2343,0,78.22277832,15.65263367,14.5,10,56,35,11,1006.86,48,14.08,1608,2502,-23,-3,20,-86
2344,0,78.22277832,15.65264511,14.6,10,56,36,11,1006.91,48,14.08,1607,2503,-23,-3,20,-86
2345,0,78.22280884,15.65266037,14.7,10,56,37,10,1006.91,48,14.07,1607,2503,-23,-3,20,-85
2346,0,78.22280884,15.65266037,14.7,10,56,38,10,1006.89,48,14.06,1607,2501,-23,-3,20,-85
2347,0,78.22277832,15.65264511,14.5,10,56,39,10,1006.89,48,14.06,1607,2500,-23,-3,20,-85
2348,0,78.22277832,15.65265656,14.5,10,56,40,10,1006.9,48,14.05,1607,2500,-23,-3,20,-85
2349,0,78.22280884,15.65266800,14.6,10,56,41,10,1006.9,48,14.05,1608,2507,-23,-3,20,-85
2350,0,78.22280884,15.65267181,14.7,10,56,42,10,1006.92,48,14.05,1608,2500,-23,-3,20,-85
2351,0,78.22280884,15.65267944,14.6,10,56,43,10,1006.89,48,14.04,1608,2503,-23,-3,20,-85
2352,0,78.22280884,15.65269470,14.8,10,56,44,10,1006.89,48,14.03,1608,2501,-23,-3,20,-85
2353,0,78.22280884,15.65269089,14.7,10,56,45,10,1006.92,48,14.02,1608,2503,-23,-3,20,-85
2354,0,78.22280884,15.65269089,14.7,10,56,46,10,1006.93,48,14.02,1608,2502,-23,-3,20,-85
2355,0,78.22280884,15.65270996,14.7,10,56,47,10,1006.95,48,14.01,1607,2500,-23,-3,20,-85
2356,0,78.22280884,15.65270996,14.7,10,56,48,10,1006.9,48,14.0,1607,2502,-23,-3,20,-85
2357,0,78.22280884,15.65271759,14.7,10,56,49,10,1006.9,48,14.0,1608,2502,-23,-3,20,-85
2358,0,78.22280884,15.65272522,14.7,10,56,50,10,1006.91,48,13.99,1609,2508,-23,-3,20,-85
2359,0,78.22277832,15.65272903,14.7,10,56,51,10,1006.9,48,13.98,1609,2503,-23,-3,20,-86
2360,0,78.22280884,15.65275192,14.8,10,56,52,10,1006.91,48,13.97,1609,2503,-23,-3,20,-85
2361,0,78.22277832,15.65275192,14.7,10,56,53,10,1006.91,48,13.96,1609,2501,-23,-3,20,-86
2362,0,78.22277832,15.65274811,14.8,10,56,54,10,1006.9,48,13.95,1609,2502,-23,-3,20,-85
2363,0,78.22277832,15.65274429,14.8,10,56,55,10,1006.88,48,13.94,1609,2501,-23,-3,20,-85
2364,0,78.22277832,15.65275192,14.8,10,56,56,10,1006.93,48,13.94,1609,2502,-23,-3,20,-85
2365,0,78.22277832,15.65275574,14.8,10,56,57,10,1006.89,48,13.92,1609,2502,-23,-3,20,-84
2366,0,78.22277832,15.65275955,14.8,10,56,58,10,1006.91,48,13.91,1609,2504,-23,-3,20,-85
2367,0,78.22277832,15.65275955,14.8,10,56,59,10,1006.88,48,13.9,1610,2502,-23,-3,20,-85
2368,0,78.22277832,15.65276337,14.8,10,57,0,9,1006.89,48,13.89,1610,2502,-23,-3,20,-85
2369,0,78.22277832,15.65274811,14.7,10,57,1,10,1006.9,48,13.88,1608,2501,-23,-3,20,-85
2370,0,78.22277832,15.65273666,14.6,10,57,2,9,1006.9,48,13.87,1609,2501,-23,-3,20,-85
2371,0,78.22277832,15.65274811,14.6,10,57,3,10,1006.89,48,13.86,1609,2500,-23,-3,20,-85
2372,0,78.22277832,15.65276337,14.6,10,57,4,10,1006.9,48,13.85,1610,2505,-23,-3,20,-84
2373,0,78.22277832,15.65274429,14.5,10,57,5,10,1006.9,48,13.84,1610,2505,-23,-3,20,-85
2374,0,78.22277832,15.65275574,14.5,10,57,6,10,1006.91,48,13.83,1610,2500,-23,-3,20,-85
2375,0,78.22277832,15.65273666,14.4,10,57,7,10,1006.91,48,13.82,1611,2506,-23,-3,20,-85
2376,0,78.22277832,15.65272903,14.4,10,57,8,10,1006.88,48,13.8,1611,2506,-23,-3,20,-86
2377,0,78.22277832,15.65272522,14.3,10,57,9,10,1006.87,48,13.8,1611,2506,-23,-3,20,-85
2378,0,78.22277832,15.65272522,14.3,10,57,10,10,1006.89,48,13.78,1611,2503,-23,-3,20,-85
2380,0,78.22277832,15.65272903,14.3,10,57,12,9,1006.89,48,13.76,1613,2506,-23,-3,20,-84
2381,0,78.22277832,15.65274048,14.4,10,57,13,9,1006.91,48,13.75,1612,2507,-23,-3,20,-85
2382,0,78.22277832,15.65275192,14.6,10,57,14,9,1006.91,48,13.74,1609,2504,-23,-3,20,-84
2383,0,78.22277832,15.65275192,14.6,10,57,15,9,1006.91,48,13.73,1609,2503,-23,-3,20,-84
2384,0,78.22277832,15.65274811,14.4,10,57,16,8,1006.93,48,13.72,1610,2501,-23,-3,20,-85
2385,0,78.22277832,15.65275192,14.5,10,57,17,9,1006.91,48,13.7,1610,2514,-23,-3,20,-84
2386,0,78.22277832,15.65275955,14.6,10,57,18,9,1006.9,48,13.7,1611,2506,-23,-3,20,-84
2387,0,78.22277832,15.65275574,14.6,10,57,19,9,1006.9,48,13.68,1611,2506,-23,-3,20,-84
2388,0,78.22277832,15.65275574,14.6,10,57,20,9,1006.91,48,13.67,1610,2505,-23,-3,20,-85
2389,0,78.22277832,15.65275574,14.6,10,57,21,9,1006.9,48,13.65,1608,2505,-23,-3,20,-85
2390,0,78.22277832,15.65275574,14.6,10,57,22,9,1006.92,48,13.64,1608,2505,-23,-3,20,-85
2391,0,78.22277832,15.65275574,14.6,10,57,23,10,1006.89,48,13.63,1608,2505,-23,-3,20,-85
2392,0,78.22277832,15.65275574,14.6,10,57,24,10,1006.9,48,13.61,1608,2503,-23,-3,20,-85
2393,0,78.22277832,15.65275955,14.6,10,57,25,10,1006.89,48,13.6,1608,2504,-23,-3,20,-84
2394,0,78.22277832,15.65276718,14.7,10,57,26,11,1006.88,48,13.58,1610,2504,-23,-3,20,-85
2395,0,78.22277832,15.65277863,14.8,10,57,27,11,1006.89,48,13.57,1610,2505,-23,-3,20,-84
2396,0,78.22277832,15.65278625,15.0,10,57,28,12,1006.89,48,13.56,1611,2506,-23,-3,20,-84
2397,0,78.22277832,15.65278244,14.9,10,57,29,12,1006.88,48,13.54,1609,2503,-23,-3,20,-84
2398,0,78.22277832,15.65277481,14.8,10,57,30,12,1006.91,48,13.53,1610,2506,-23,-3,20,-84
2399,0,78.22277832,15.65277863,14.8,10,57,31,12,1006.91,48,13.52,1610,2506,-23,-3,20,-84
2400,0,78.22277832,15.65279007,14.9,10,57,32,12,1006.92,48,13.51,1611,2505,-23,-3,20,-84
2401,0,78.22277832,15.65279007,14.9,10,57,33,11,1006.9,48,13.5,1611,2508,-23,-3,20,-85
2402,0,78.22277832,15.65278625,14.8,10,57,34,10,1006.91,49,13.48,1610,2505,-23,-3,20,-84
2403,0,78.22277832,15.65279007,14.8,10,57,35,10,1006.94,49,13.47,1609,2504,-23,-3,20,-85
2404,0,78.22277832,15.65279770,14.9,10,57,36,10,1006.9,49,13.45,1609,2503,-23,-3,20,-85
2405,0,78.22277832,15.65280533,15.1,10,57,37,10,1006.89,49,13.44,1608,2503,-23,-3,20,-85
2406,0,78.22277832,15.65280533,15.1,10,57,38,10,1006.9,49,13.43,1605,2504,-23,-3,20,-85
2407,0,78.22277832,15.65280151,15.1,10,57,39,10,1006.93,49,13.42,1604,2505,-23,-3,20,-84
2408,0,78.22277832,15.65279770,15.0,10,57,40,10,1006.92,49,13.4,1601,2503,-23,-3,20,-85
2409,0,78.22277832,15.65278625,14.8,10,57,41,10,1006.92,49,13.39,1599,2513,-23,-3,20,-85
2410,0,78.22277832,15.65279388,14.9,10,57,42,11,1006.93,49,13.38,1596,2493,-23,-3,20,-86
2411,0,78.22277832,15.65279770,14.9,10,57,43,11,1006.92,49,13.36,1594,2506,-23,-3,20,-84
2412,0,78.22277832,15.65279770,14.9,10,57,44,11,1006.91,49,13.35,1593,2505,-23,-3,20,-85
2413,0,78.22277832,15.65280914,14.9,10,57,45,11,1006.9,49,13.33,1594,2504,-23,-3,20,-85
2414,0,78.22277832,15.65280533,14.8,10,57,46,11,1006.91,49,13.32,1594,2504,-23,-3,20,-85
2415,0,78.22277832,15.65280533,14.7,10,57,47,11,1006.91,49,13.3,1594,2506,-23,-3,20,-85
2416,0,78.22277832,15.65281296,14.9,10,57,48,11,1006.91,49,13.29,1596,2505,-23,-3,20,-85
2417,0,78.22277832,15.65281296,14.9,10,57,49,11,1006.88,49,13.28,1596,2504,-23,-3,20,-84
2418,0,78.22277832,15.65280533,14.8,10,57,50,11,1006.89,49,13.26,1596,2507,-23,-3,20,-85
2419,0,78.22277832,15.65281677,14.9,10,57,51,11,1006.93,49,13.25,1597,2505,-23,-3,20,-85
2420,0,78.22277832,15.65281677,14.9,10,57,52,11,1006.92,49,13.23,1598,2503,-23,-3,20,-84
2421,0,78.22277832,15.65281296,14.8,10,57,53,11,1006.9,49,13.22,1599,2505,-23,-3,20,-84
2422,0,78.22277832,15.65281677,14.8,10,57,54,11,1006.89,49,13.21,1600,2505,-23,-3,20,-84
2423,0,78.22277832,15.65283203,14.9,10,57,55,11,1006.92,49,13.2,1601,2503,-23,-3,20,-85
2424,0,78.22277832,15.65283203,14.9,10,57,56,11,1006.89,49,13.19,1601,2503,-23,-3,20,-84
2425,0,78.22277832,15.65283966,14.9,10,57,57,10,1006.92,50,13.17,1602,2504,-23,-3,20,-84
2426,0,78.22277832,15.65284348,14.9,10,57,58,11,1006.9,50,13.16,1602,2505,-23,-3,20,-85
2427,0,78.22277832,15.65284729,14.9,10,57,59,12,1006.92,50,13.15,1603,2506,-23,-3,20,-85
2428,0,78.22277832,15.65285110,14.9,10,58,0,12,1006.9,50,13.14,1603,2503,-23,-3,20,-83
2429,0,78.22277832,15.65285110,14.9,10,58,1,12,1006.9,50,13.12,1603,2504,-23,-3,20,-83
2430,0,78.22277832,15.65285873,14.9,10,58,2,12,1006.93,50,13.12,1604,2503,-23,-3,20,-84
2431,0,78.22277832,15.65285492,14.9,10,58,3,12,1006.91,50,13.1,1604,2506,-23,-3,20,-84
2432,0,78.22277832,15.65286255,15.0,10,58,4,12,1006.9,50,13.09,1605,2505,-23,-3,20,-84
2433,0,78.22277832,15.65287018,14.9,10,58,5,12,1006.93,50,13.08,1604,2503,-23,-3,20,-84
2434,0,78.22277832,15.65286636,14.9,10,58,6,12,1006.91,50,13.07,1604,2503,-23,-3,20,-84
2435,0,78.22277832,15.65286255,15.0,10,58,7,12,1006.9,50,13.05,1604,2505,-23,-3,20,-84
2436,0,78.22277832,15.65288162,15.0,10,58,8,12,1006.88,50,13.04,1604,2503,-23,-3,20,-84
2437,0,78.22277832,15.65287018,14.8,10,58,9,12,1006.9,50,13.03,1605,2502,-23,-3,20,-84
2438,0,78.22277832,15.65287018,14.8,10,58,10,12,1006.89,50,13.02,1606,2505,-23,-3,20,-85
2439,0,78.22277832,15.65287018,14.9,10,58,11,12,1006.88,50,13.01,1606,2504,-23,-3,20,-84
2440,0,78.22277832,15.65287399,14.9,10,58,12,12,1006.9,50,13.0,1605,2503,-23,-3,20,-82
2441,0,78.22277832,15.65288544,14.9,10,58,13,12,1006.94,50,12.99,1608,2504,-23,-3,20,-84
2442,0,78.22277832,15.65288544,15.0,10,58,14,12,1006.89,50,12.98,1607,2502,-23,-3,20,-85
2443,0,78.22277832,15.65288925,15.0,10,58,15,12,1006.89,50,12.97,1607,2505,-23,-3,20,-85
2444,0,78.22277832,15.65288544,15.0,10,58,16,12,1006.86,50,12.96,1608,2503,-23,-3,20,-84
2445,0,78.22277832,15.65288925,15.1,10,58,17,12,1006.87,50,12.94,1607,2505,-23,-3,20,-85
2446,0,78.22277832,15.65289688,15.1,10,58,18,12,1006.88,50,12.93,1608,2503,-23,-3,20,-85
2447,0,78.22277832,15.65288925,15.1,10,58,19,12,1006.88,50,12.92,1608,2505,-23,-3,20,-85
2448,0,78.22277832,15.65289688,15.2,10,58,20,12,1006.91,50,12.91,1608,2505,-23,-3,20,-83
2449,0,78.22277832,15.65290070,15.3,10,58,21,12,1006.9,50,12.9,1608,2503,-23,-3,20,-84
2450,0,78.22277832,15.65290451,15.1,10,58,22,12,1006.91,50,12.9,1608,2505,-23,-3,20,-86
2451,0,78.22277832,15.65290070,15.2,10,58,23,12,1006.9,50,12.89,1608,2503,-23,-3,20,-84
2452,0,78.22277832,15.65290833,15.3,10,58,24,12,1006.9,50,12.88,1608,2505,-23,-3,20,-85
2453,0,78.22277832,15.65291214,15.3,10,58,25,11,1006.88,50,12.86,1608,2505,-23,-3,20,-85
2454,0,78.22277832,15.65291214,15.4,10,58,26,11,1006.9,50,12.86,1609,2505,-23,-3,20,-84
2455,0,78.22277832,15.65291977,15.4,10,58,27,11,1006.9,50,12.85,1609,2502,-23,-3,20,-84
2456,0,78.22277832,15.65291595,15.3,10,58,28,11,1006.9,50,12.84,1609,2505,-23,-3,20,-85
2457,0,78.22277832,15.65290833,15.3,10,58,29,11,1006.91,50,12.84,1608,2504,-23,-3,20,-85
2458,0,78.22277832,15.65291595,15.4,10,58,30,11,1006.89,50,12.82,1609,2504,-23,-3,20,-85
2459,0,78.22277832,15.65292358,15.4,10,58,31,11,1006.89,50,12.82,1608,2502,-23,-3,20,-85
2460,0,78.22277832,15.65292358,15.3,10,58,32,11,1006.92,50,12.8,1607,2502,-23,-3,20,-85
2461,0,78.22277832,15.65291595,15.3,10,58,33,11,1006.92,50,12.8,1607,2503,-23,-3,20,-86
2462,0,78.22277832,15.65292358,15.5,10,58,34,11,1006.91,50,12.79,1607,2504,-23,-3,20,-86
2463,0,78.22277832,15.65294266,15.5,10,58,35,11,1006.92,50,12.78,1606,2505,-23,-3,20,-87
2464,0,78.22277832,15.65295029,15.5,10,58,36,11,1006.9,50,12.77,1606,2502,-23,-3,20,-86
2465,0,78.22277832,15.65293121,15.5,10,58,37,11,1006.88,50,12.76,1606,2505,-23,-3,20,-86
2466,0,78.22277832,15.65294647,15.6,10,58,38,12,1006.93,50,12.76,1606,2504,-23,-3,20,-86
2467,0,78.22277832,15.65294647,15.7,10,58,39,12,1006.91,50,12.75,1606,2505,-23,-3,20,-86
2468,0,78.22277832,15.65295410,15.7,10,58,40,11,1006.9,50,12.74,1606,2503,-23,-3,20,-86
2469,0,78.22277832,15.65295410,15.5,10,58,41,11,1006.92,50,12.73,1606,2505,-23,-3,20,-86
2470,0,78.22277832,15.65296173,15.7,10,58,42,11,1006.93,50,12.73,1606,2504,-23,-3,20,-86
2471,0,78.22280884,15.65298843,15.7,10,58,43,11,1006.92,50,12.72,1605,2503,-23,-3,20,-86
2472,0,78.22280884,15.65298080,15.6,10,58,44,11,1006.91,50,12.71,1603,2509,-23,-3,20,-86
2473,0,78.22280884,15.65299606,15.7,10,58,45,11,1006.89,50,12.71,1602,2504,-23,-3,20,-86
2474,0,78.22280884,15.65299988,15.7,10,58,46,11,1006.92,50,12.7,1601,2503,-23,-3,20,-86
2475,0,78.22280884,15.65299988,15.6,10,58,47,11,1006.91,50,12.69,1601,2504,-23,-3,20,-86
2476,0,78.22280884,15.65299225,15.7,10,58,48,11,1006.91,50,12.69,1601,2501,-23,-3,20,-86
2477,0,78.22280884,15.65299606,15.9,10,58,49,11,1006.91,50,12.68,1601,2504,-23,-3,20,-86
2478,0,78.22280884,15.65300369,15.8,10,58,50,11,1006.91,50,12.67,1600,2503,-23,-3,20,-86
2479,0,78.22280884,15.65300751,15.9,10,58,51,11,1006.93,50,12.67,1601,2503,-23,-3,20,-86
2480,0,78.22280884,15.65300751,15.8,10,58,52,11,1006.91,50,12.66,1601,2502,-23,-3,20,-86
2481,0,78.22280884,15.65300369,15.6,10,58,53,11,1006.92,50,12.66,1601,2492,-23,-3,20,-85
2482,0,78.22280884,15.65300751,15.8,10,58,54,11,1006.92,50,12.65,1601,2503,-23,-3,20,-86
2483,0,78.22280884,15.65300751,15.8,10,58,55,11,1006.92,50,12.65,1602,2504,-23,-3,20,-85
2484,0,78.22280884,15.65301514,15.7,10,58,56,11,1006.92,50,12.63,1601,2504,-23,-3,20,-85
2485,0,78.22280884,15.65302658,16.0,10,58,57,11,1006.93,50,12.63,1601,2504,-23,-3,20,-85
2486,0,78.22280884,15.65304184,15.9,10,58,58,11,1006.9,50,12.63,1602,2503,-23,-3,20,-86
2487,0,78.22280884,15.65303040,15.8,10,58,59,11,1006.94,50,12.62,1602,2502,-23,-3,20,-85
2488,0,78.22280884,15.65303040,15.8,10,59,0,12,1006.91,50,12.62,1602,2504,-23,-3,20,-84
2489,0,78.22280884,15.65303040,15.9,10,59,1,12,1006.93,50,12.6,1602,2513,-23,-3,20,-86
2490,0,78.22280884,15.65304184,15.8,10,59,2,12,1006.87,50,12.6,1602,2503,-23,-3,20,-85
2491,0,78.22280884,15.65304184,15.6,10,59,3,12,1006.93,50,12.6,1602,2505,-23,-3,20,-85
2492,0,78.22280884,15.65304565,15.8,10,59,4,12,1006.92,50,12.6,1602,2502,-23,-3,20,-85
2493,0,78.22280884,15.65304184,15.8,10,59,5,12,1006.9,50,12.58,1602,2503,-23,-3,20,-85
2494,0,78.22280884,15.65304184,15.8,10,59,6,12,1006.92,50,12.58,1601,2504,-23,-3,20,-85
2495,0,78.22280884,15.65304565,15.9,10,59,7,12,1006.9,50,12.57,1600,2502,-23,-3,20,-85
2496,0,78.22280884,15.65304565,15.8,10,59,8,12,1006.91,50,12.57,1600,2503,-23,-3,20,-85
2497,0,78.22280884,15.65304565,15.7,10,59,9,12,1006.91,50,12.56,1601,2504,-23,-3,20,-85
2498,0,78.22280884,15.65304565,15.9,10,59,10,12,1006.89,50,12.55,1600,2511,-23,-3,20,-85
2499,0,78.22280884,15.65304565,15.8,10,59,11,12,1006.91,50,12.55,1600,2503,-23,-3,20,-85
2500,0,78.22280884,15.65304565,15.7,10,59,12,12,1006.93,50,12.54,1599,2504,-23,-3,20,-87
2501,0,78.22280884,15.65304565,15.8,10,59,13,12,1006.92,50,12.54,1598,2504,-23,-3,20,-86
2502,0,78.22280884,15.65304184,15.8,10,59,14,12,1006.91,50,12.53,1597,2504,-23,-3,20,-85
2503,0,78.22280884,15.65304184,15.8,10,59,15,12,1006.92,50,12.52,1597,2504,-23,-3,20,-84
2504,0,78.22280884,15.65305710,15.9,10,59,16,12,1006.93,50,12.52,1595,2504,-23,-3,20,-85
2505,0,78.22280884,15.65305328,15.8,10,59,17,12,1006.89,50,12.51,1595,2504,-23,-3,20,-84
2506,0,78.22280884,15.65306091,15.8,10,59,18,12,1006.95,50,12.5,1596,2514,-23,-3,20,-84
2507,0,78.22280884,15.65305710,15.7,10,59,19,12,1006.92,50,12.49,1597,2493,-23,-3,20,-84
2508,0,78.22280884,15.65305710,16.0,10,59,20,12,1006.93,50,12.48,1596,2502,-23,-3,20,-84
2509,0,78.22280884,15.65305710,15.9,10,59,21,12,1006.93,50,12.48,1596,2504,-23,-3,20,-83
2510,0,78.22280884,15.65305710,15.8,10,59,22,12,1006.91,50,12.47,1596,2503,-23,-3,20,-83
2511,0,78.22280884,15.65306091,16.2,10,59,23,11,1006.94,50,12.47,1595,2504,-23,-3,20,-83
2512,0,78.22280884,15.65306091,16.2,10,59,24,11,1006.93,50,12.46,1596,2502,-23,-3,20,-82
2513,0,78.22280884,15.65305710,16.1,10,59,25,11,1006.93,50,12.45,1596,2504,-23,-3,20,-83
2514,0,78.22280884,15.65305710,16.1,10,59,26,11,1006.92,50,12.44,1596,2501,-23,-3,20,-84
2515,0,78.22280884,15.65306091,16.1,10,59,27,11,1006.93,50,12.44,1596,2503,-23,-3,20,-84
2516,0,78.22280884,15.65306091,16.0,10,59,28,12,1006.92,50,12.43,1598,2511,-23,-3,20,-84
2517,0,78.22280884,15.65306473,16.1,10,59,29,12,1006.92,50,12.42,1595,2504,-23,-3,20,-84
2518,0,78.22280884,15.65308380,16.0,10,59,30,12,1006.93,50,12.42,1593,2502,-23,-3,20,-84
2519,0,78.22280884,15.65307236,15.9,10,59,31,12,1006.93,50,12.41,1592,2505,-23,-3,20,-85
2520,0,78.22280884,15.65307617,15.9,10,59,32,12,1006.89,50,12.4,1591,2502,-23,-3,20,-83
2521,0,78.22280884,15.65307617,15.9,10,59,33,11,1006.9,50,12.39,1589,2502,-23,-3,20,-83
2522,0,78.22280884,15.65307999,15.9,10,59,34,12,1006.91,50,12.39,1589,2501,-23,-3,20,-83
2523,0,78.22280884,15.65307999,16.0,10,59,35,12,1006.88,50,12.38,1590,2502,-23,-3,20,-83
2524,0,78.22280884,15.65307999,16.0,10,59,36,12,1006.95,50,12.38,1592,2503,-23,-3,20,-84
2525,0,78.22280884,15.65307999,16.0,10,59,37,12,1006.92,50,12.36,1593,2502,-23,-3,20,-83
2526,0,78.22280884,15.65307999,16.0,10,59,38,12,1006.92,50,12.36,1594,2502,-23,-3,20,-83
2527,0,78.22280884,15.65307999,16.0,10,59,39,12,1006.93,50,12.35,1594,2503,-23,-3,20,-83
2528,0,78.22280884,15.65307999,15.9,10,59,40,12,1006.92,50,12.34,1594,2503,-23,-3,20,-83
2529,0,78.22280884,15.65307999,15.9,10,59,41,12,1006.96,50,12.33,1595,2503,-23,-3,20,-83
2530,0,78.22280884,15.65307999,15.8,10,59,42,12,1006.91,50,12.33,1597,2501,-23,-3,20,-83
2531,0,78.22280884,15.65307999,15.8,10,59,43,12,1006.93,50,12.32,1597,2502,-23,-3,20,-84
2532,0,78.22280884,15.65307617,15.8,10,59,44,12,1006.92,50,12.31,1599,2505,-23,-3,20,-84
2533,0,78.22280884,15.65308762,15.8,10,59,45,12,1006.93,50,12.3,1599,2509,-23,-3,20,-86
2534,0,78.22280884,15.65308380,15.7,10,59,46,12,1006.94,50,12.29,1601,2504,-23,-3,20,-87
2535,0,78.22280884,15.65308380,15.7,10,59,47,12,1006.93,51,12.29,1599,2504,-23,-3,20,-86
2536,0,78.22280884,15.65307617,15.8,10,59,48,12,1006.9,51,12.28,1600,2504,-23,-3,20,-87
2537,0,78.22280884,15.65307999,15.7,10,59,49,12,1006.91,51,12.27,1599,2501,-23,-3,20,-86
2538,0,78.22280884,15.65307999,15.6,10,59,50,12,1006.92,51,12.26,1599,2503,-23,-3,20,-85
2539,0,78.22280884,15.65307617,15.6,10,59,51,12,1006.92,51,12.25,1599,2504,-23,-3,20,-85
2540,0,78.22280884,15.65307617,15.8,10,59,52,12,1006.89,51,12.24,1600,2502,-23,-3,20,-85
2541,0,78.22280884,15.65307999,15.7,10,59,53,12,1006.93,51,12.24,1601,2512,-23,-3,20,-85
2542,0,78.22280884,15.65307617,15.6,10,59,54,11,1006.9,51,12.23,1601,2504,-23,-3,20,-85
2543,0,78.22280884,15.65307617,15.7,10,59,55,11,1006.93,51,12.22,1600,2503,-23,-3,20,-86
2544,0,78.22280884,15.65307617,15.7,10,59,56,12,1006.89,51,12.21,1599,2503,-23,-3,20,-85
2545,0,78.22280884,15.65307617,15.7,10,59,57,12,1006.9,51,12.2,1598,2501,-23,-3,20,-85
2546,0,78.22280884,15.65307617,15.7,10,59,58,12,1006.89,51,12.2,1597,2504,-23,-3,20,-85
2547,0,78.22280884,15.65307617,15.7,10,59,59,12,1006.9,51,12.19,1596,2501,-23,-3,20,-85
2548,0,78.22280884,15.65307617,15.7,11,0,0,12,1006.89,51,12.18,1595,2501,-23,-3,20,-86
2549,0,78.22280884,15.65307236,15.7,11,0,1,13,1006.9,51,12.17,1593,2503,-23,-3,20,-85
2550,0,78.22280884,15.65307236,15.8,11,0,2,13,1006.9,51,12.16,1591,2491,-23,-3,20,-85
2551,0,78.22280884,15.65307617,15.8,11,0,3,13,1006.92,51,12.15,1591,2504,-23,-3,20,-84
2552,0,78.22280884,15.65307617,15.9,11,0,4,13,1006.92,51,12.14,1590,2501,-23,-3,20,-84
2553,0,78.22280884,15.65307617,16.0,11,0,5,13,1006.92,51,12.13,1590,2501,-23,-3,20,-82
2554,0,78.22280884,15.65307617,15.8,11,0,6,13,1006.9,51,12.12,1591,2504,-23,-3,20,-84
