packetnr,hk,lat,lon,alt,hh,mm,ss,nsat,p,H,T,ntc,bat,yaw,pitch,roll,rssi
452,0,78.21994019,15.64024353,41.2,12,53,55,11,1005.48,30,21.6,923,2577,104,0,9,-55
453,0,78.21990967,15.64026642,41.0,12,53,56,11,1005.51,30,21.61,922,2577,104,0,9,-53
454,0,78.21990967,15.64027405,40.8,12,53,57,11,1005.51,30,21.6,922,2578,104,0,9,-59
455,0,78.21990967,15.64030075,40.6,12,53,58,11,1005.5,30,21.61,921,2578,104,0,9,-63
456,0,78.21994019,15.64033508,40.6,12,53,59,11,1005.52,30,21.61,920,2577,104,0,9,-58
457,0,78.21994019,15.64035797,40.6,12,54,0,11,1005.52,30,21.61,920,2576,104,0,9,-57
458,0,78.21994019,15.64038086,40.6,12,54,1,11,1005.49,30,21.61,920,2579,104,0,9,-57
459,0,78.21994019,15.64040756,40.5,12,54,2,11,1005.51,30,21.61,919,2579,104,0,9,-57
460,0,78.21990967,15.64043808,40.5,12,54,3,10,1005.51,30,21.61,917,2577,104,0,9,-56
461,0,78.21994019,15.64043045,40.4,12,54,4,10,1005.51,30,21.61,917,2578,104,0,9,-57
462,0,78.21994019,15.64043045,40.3,12,54,5,9,1005.53,30,21.61,917,2575,104,0,9,-56
463,0,78.21994019,15.64044189,40.2,12,54,6,9,1005.51,30,21.62,916,2577,104,0,9,-56
464,0,78.21994019,15.64045715,40.1,12,54,7,9,1005.53,30,21.62,916,2578,104,0,9,-56
465,0,78.21990967,15.64049149,40.1,12,54,8,9,1005.53,30,21.62,915,2576,104,0,9,-56
466,0,78.21990967,15.64049149,40.0,12,54,9,8,1005.5,30,21.62,915,2576,104,0,9,-56
467,0,78.21990967,15.64047623,40.1,12,54,10,8,1005.53,30,21.62,916,2576,104,0,9,-56
468,0,78.21990967,15.64047241,40.1,12,54,11,8,1005.53,30,21.62,916,2576,104,0,9,-56
469,0,78.21990967,15.64045334,40.1,12,54,12,8,1005.55,30,21.63,916,2575,104,0,9,-56
470,0,78.21990967,15.64046478,40.2,12,54,13,8,1005.52,30,21.62,915,2584,104,0,9,-56
471,0,78.21990967,15.64047241,40.3,12,54,14,8,1005.54,30,21.63,916,2577,104,0,9,-56
472,0,78.21990967,15.64046860,40.3,12,54,15,8,1005.52,30,21.62,918,2577,104,0,9,-56
473,0,78.21990967,15.64045715,40.3,12,54,16,8,1005.49,30,21.63,918,2578,104,0,9,-56
474,0,78.21990967,15.64042664,40.3,12,54,17,7,1005.52,30,21.63,918,2577,104,0,9,-56
475,0,78.21990967,15.64040375,40.3,12,54,18,7,1005.5,30,21.63,917,2577,104,0,9,-56
476,0,78.21990967,15.64037323,40.3,12,54,19,7,1005.5,30,21.63,916,2578,104,0,9,-58
477,0,78.21990967,15.64037323,40.3,12,54,20,7,1005.52,30,21.63,917,2580,104,0,9,-59
478,0,78.21990967,15.64034271,40.3,12,54,21,7,1005.5,30,21.64,917,2576,104,0,9,-59
479,0,78.21994019,15.64030838,40.3,12,54,22,7,1005.51,30,21.64,916,2576,104,0,9,-61
480,0,78.21990967,15.64030075,40.3,12,54,23,7,1005.52,30,21.64,917,2577,104,0,9,-60
481,0,78.21994019,15.64028549,40.3,12,54,24,7,1005.52,30,21.64,917,2577,104,0,9,-59
482,0,78.21994019,15.64028168,40.3,12,54,25,7,1005.54,30,21.64,917,2576,104,0,9,-60
483,0,78.21994019,15.64026260,40.3,12,54,26,7,1005.5,30,21.65,917,2575,104,0,9,-58
484,0,78.21994019,15.64025879,40.3,12,54,27,7,1005.52,30,21.64,917,2576,104,0,9,-57
485,0,78.21994019,15.64026260,40.3,12,54,28,7,1005.54,30,21.65,917,2574,104,0,9,-56
486,0,78.21994019,15.64027786,40.4,12,54,29,7,1005.52,30,21.65,916,2577,104,0,9,-57
487,0,78.21994019,15.64027405,40.4,12,54,30,7,1005.53,30,21.65,916,2576,104,0,9,-57
488,0,78.21994019,15.64029312,40.5,12,54,31,7,1005.51,30,21.65,915,2576,104,0,9,-56
489,0,78.21994019,15.64030838,40.5,12,54,32,7,1005.52,30,21.66,916,2576,104,0,9,-56
490,0,78.21994019,15.64033890,40.4,12,54,33,8,1005.52,30,21.66,915,2577,104,0,9,-57
491,0,78.21994019,15.64042664,40.4,12,54,34,8,1005.52,30,21.66,916,2576,104,0,9,-56
492,0,78.21994019,15.64042664,40.4,12,54,35,8,1005.54,30,21.66,916,2567,104,0,9,-56
493,0,78.21994019,15.64041138,40.5,12,54,36,8,1005.51,30,21.66,917,2577,104,0,9,-56
494,0,78.21994019,15.64041519,40.4,12,54,37,8,1005.51,30,21.66,919,2576,104,0,9,-57
495,0,78.21994019,15.64041519,40.5,12,54,38,9,1005.54,30,21.67,921,2576,104,0,9,-55
496,0,78.21994019,15.64038849,40.4,12,54,39,8,1005.52,30,21.67,922,2575,104,0,9,-56
497,0,78.21994019,15.64038086,40.4,12,54,40,8,1005.53,30,21.67,923,2577,104,0,9,-56
498,0,78.21994019,15.64039230,40.4,12,54,41,8,1005.49,30,21.67,923,2577,104,0,9,-56
499,0,78.21994019,15.64038467,40.4,12,54,42,9,1005.55,30,21.68,922,2577,104,0,9,-56
500,0,78.21994019,15.64034271,40.3,12,54,43,9,1005.53,30,21.67,923,2577,104,0,9,-55
501,0,78.21990967,15.64030457,40.1,12,54,44,9,1005.53,30,21.67,925,2575,104,0,9,-56
502,0,78.21990967,15.64028168,40.1,12,54,45,9,1005.52,30,21.68,924,2569,104,0,9,-55
503,0,78.21990967,15.64027023,40.1,12,54,46,9,1005.54,30,21.68,923,2576,104,0,9,-55
504,0,78.21990967,15.64024353,40.0,12,54,47,8,1005.51,30,21.67,923,2577,104,0,9,-55
505,0,78.21990967,15.64023590,40.0,12,54,48,8,1005.51,30,21.67,924,2576,104,0,9,-55
506,0,78.21990967,15.64025116,40.0,12,54,49,8,1005.52,30,21.68,924,2577,104,0,9,-55
507,0,78.21990967,15.64025116,40.0,12,54,50,8,1005.55,30,21.68,925,2576,104,0,9,-57
508,0,78.21990967,15.64028168,39.9,12,54,51,8,1005.53,30,21.68,925,2574,104,0,9,-67
509,0,78.21990967,15.64029312,39.8,12,54,52,10,1005.5,30,21.68,924,2576,104,0,9,-59
510,0,78.21990967,15.64031982,39.7,12,54,53,9,1005.51,30,21.68,923,2578,104,0,9,-54
511,0,78.21990967,15.64029694,39.4,12,54,54,9,1005.52,30,21.68,922,2575,104,0,9,-58
512,0,78.21990967,15.64028931,39.3,12,54,55,9,1005.52,30,21.68,920,2566,104,0,9,-63
513,0,78.21990967,15.64028168,39.3,12,54,56,9,1005.51,30,21.68,920,2576,104,0,9,-63
514,0,78.21990967,15.64029694,39.2,12,54,57,9,1005.52,30,21.68,920,2576,104,0,9,-59
515,0,78.21990967,15.64030075,39.1,12,54,58,9,1005.52,30,21.68,920,2576,104,0,9,-59
516,0,78.21990967,15.64030457,39.0,12,54,59,10,1005.51,30,21.69,919,2576,104,0,9,-59
517,0,78.21990967,15.64029694,38.9,12,55,0,11,1005.51,30,21.69,918,2576,104,0,9,-60
518,0,78.21990967,15.64026642,38.8,12,55,1,11,1005.53,30,21.69,918,2576,104,0,9,-61
519,0,78.21990967,15.64027786,38.7,12,55,2,11,1005.53,30,21.69,917,2574,104,0,9,-56
520,0,78.21990967,15.64028168,38.7,12,55,3,11,1005.53,30,21.7,917,2574,104,0,9,-55
521,0,78.21990967,15.64025879,38.6,12,55,4,11,1005.53,30,21.7,918,2574,104,0,9,-55
522,0,78.21990967,15.64023209,38.5,12,55,5,11,1005.54,30,21.7,918,2575,104,0,9,-55
523,0,78.21990967,15.64021301,38.4,12,55,6,11,1005.56,30,21.7,918,2575,104,0,9,-55
524,0,78.21990967,15.64023590,38.4,12,55,7,12,1005.54,30,21.7,918,2577,104,0,9,-56
525,0,78.21990967,15.64023972,38.3,12,55,8,12,1005.56,30,21.7,919,2577,104,0,9,-67
526,0,78.21990967,15.64022446,38.3,12,55,9,12,1005.53,30,21.7,919,2575,104,0,9,-56
527,0,78.21990967,15.64021683,38.2,12,55,10,12,1005.53,30,21.7,919,2576,104,0,9,-57
528,0,78.21990967,15.64021683,38.1,12,55,11,11,1005.53,30,21.7,921,2576,104,0,9,-58
529,0,78.21990967,15.64019775,38.1,12,55,12,11,1005.52,30,21.71,920,2574,104,0,9,-59
530,0,78.21990967,15.64020157,38.1,12,55,13,12,1005.5,30,21.71,923,2575,104,0,9,-56
531,0,78.21990967,15.64021683,38.0,12,55,14,12,1005.51,30,21.71,925,2574,104,0,9,-58
532,0,78.21990967,15.64021683,38.0,12,55,15,12,1005.53,30,21.71,926,2574,104,0,9,-57
533,0,78.21990967,15.64023590,38.0,12,55,16,12,1005.52,30,21.71,927,2576,104,0,9,-56
534,0,78.21990967,15.64016724,38.0,12,55,17,12,1005.56,30,21.72,927,2581,104,0,9,-56
535,0,78.21990967,15.64016342,38.0,12,55,18,12,1005.58,30,21.72,928,2577,104,0,9,-54
536,0,78.21990967,15.64014053,37.9,12,55,19,12,1005.54,30,21.71,928,2575,104,0,9,-56
537,0,78.21990967,15.64013290,37.9,12,55,20,11,1005.55,30,21.72,928,2574,104,0,9,-57
538,0,78.21990967,15.64013672,37.8,12,55,21,11,1005.57,30,21.72,928,2576,104,0,9,-57
539,0,78.21990967,15.64013290,37.8,12,55,22,11,1005.55,30,21.72,927,2577,104,0,9,-58
540,0,78.21990967,15.64013672,37.7,12,55,23,11,1005.56,30,21.72,927,2575,104,0,9,-58
541,0,78.21990967,15.64012909,37.7,12,55,24,11,1005.57,30,21.72,926,2574,104,0,9,-58
542,0,78.21990967,15.64013290,37.5,12,55,25,11,1005.55,30,21.72,926,2575,104,0,9,-57
543,0,78.21990967,15.64013672,37.8,12,55,26,11,1005.56,30,21.72,926,2575,104,0,9,-59
544,0,78.21990967,15.64015198,38.1,12,55,27,11,1005.57,30,21.72,927,2576,104,0,9,-58
545,0,78.21990967,15.64015579,38.3,12,55,28,11,1005.58,30,21.73,927,2575,104,0,9,-58
546,0,78.21990967,15.64015198,38.3,12,55,29,11,1005.55,30,21.72,926,2576,104,0,9,-58
547,0,78.21990967,15.64009857,38.5,12,55,30,11,1005.55,30,21.73,925,2575,104,0,9,-58
548,0,78.21990967,15.64014435,38.4,12,55,31,11,1005.55,30,21.73,923,2574,104,0,9,-58
549,0,78.21990967,15.64020157,38.3,12,55,32,11,1005.55,30,21.73,923,2571,104,0,9,-58
550,0,78.21990967,15.64023972,38.2,12,55,33,11,1005.52,30,21.73,925,2575,104,0,9,-58
551,0,78.21990967,15.64023590,38.1,12,55,34,10,1005.53,30,21.73,926,2575,104,0,9,-59
552,0,78.21990967,15.64021301,38.1,12,55,35,10,1005.53,30,21.73,927,2575,104,0,9,-58
553,0,78.21990967,15.64027405,38.1,12,55,36,10,1005.53,30,21.73,926,2576,104,0,9,-57
554,0,78.21990967,15.64033890,38.2,12,55,37,10,1005.55,30,21.74,925,2574,104,0,9,-56
555,0,78.21990967,15.64034271,38.2,12,55,38,10,1005.52,30,21.74,924,2574,104,0,9,-56
556,0,78.21990967,15.64035034,38.1,12,55,39,10,1005.52,30,21.74,924,2576,104,0,9,-56
557,0,78.21990967,15.64036942,38.1,12,55,40,10,1005.53,30,21.74,923,2576,104,0,9,-56
558,0,78.21990967,15.64037323,37.9,12,55,41,10,1005.55,30,21.74,922,2574,104,0,9,-56
559,0,78.21987915,15.64038086,37.9,12,55,42,10,1005.54,30,21.74,923,2574,104,0,9,-57
560,0,78.21987915,15.64038086,37.9,12,55,43,10,1005.52,30,21.74,922,2571,104,0,9,-59
561,0,78.21987915,15.64040375,37.9,12,55,44,10,1005.53,30,21.75,922,2575,104,0,9,-68
562,0,78.21987915,15.64043427,38.0,12,55,45,10,1005.54,30,21.75,920,2575,104,0,9,-53
563,0,78.21987915,15.64049530,38.0,12,55,46,10,1005.54,30,21.75,920,2576,104,0,9,-53
564,0,78.21987915,15.64053726,37.9,12,55,47,9,1005.54,30,21.75,919,2574,104,0,9,-54
565,0,78.21987915,15.64056015,37.9,12,55,48,10,1005.52,30,21.75,918,2574,104,0,9,-56
566,0,78.21987915,15.64059067,37.8,12,55,49,10,1005.51,30,21.76,918,2575,104,0,9,-55
567,0,78.21987915,15.64061356,37.7,12,55,50,10,1005.54,30,21.76,917,2577,104,0,9,-59
568,0,78.21987915,15.64063644,37.7,12,55,51,10,1005.54,30,21.76,917,2572,104,0,9,-55
569,0,78.21987915,15.64064407,37.5,12,55,52,10,1005.51,30,21.76,916,2576,104,0,9,-57
570,0,78.21987915,15.64069366,37.4,12,55,53,10,1005.56,30,21.76,917,2574,104,0,9,-57
571,0,78.21987915,15.64072037,37.4,12,55,54,10,1005.52,30,21.76,917,2575,104,0,9,-54
572,0,78.21987915,15.64075470,37.4,12,55,55,10,1005.53,30,21.76,917,2576,104,0,9,-51
573,0,78.21987915,15.64079285,37.3,12,55,56,10,1005.55,30,21.77,919,2575,104,0,9,-54
574,0,78.21987915,15.64080048,37.3,12,55,57,10,1005.54,30,21.76,920,2575,104,0,9,-59
575,0,78.21987915,15.64083862,37.1,12,55,58,11,1005.53,30,21.77,920,2576,104,0,9,-61
576,0,78.21987915,15.64086533,37.1,12,55,59,11,1005.5,30,21.76,919,2575,104,0,9,-57
577,0,78.21987915,15.64088058,37.0,12,56,0,11,1005.54,30,21.77,919,2573,104,0,9,-57
578,0,78.21987915,15.64089584,36.9,12,56,1,10,1005.53,30,21.77,919,2573,104,0,9,-58
579,0,78.21987915,15.64090347,36.8,12,56,2,10,1005.54,30,21.77,918,2573,104,0,9,-57
580,0,78.21987915,15.64093018,36.8,12,56,3,11,1005.55,30,21.78,920,2573,104,0,9,-56
581,0,78.21987915,15.64095306,36.8,12,56,4,11,1005.53,30,21.77,920,2575,104,0,9,-57
582,0,78.21987915,15.64099503,36.9,12,56,5,11,1005.53,30,21.78,919,2574,104,0,9,-57
583,0,78.21987915,15.64101410,37.0,12,56,6,10,1005.55,30,21.78,918,2577,104,0,9,-56
584,0,78.21987915,15.64102173,36.9,12,56,7,10,1005.54,30,21.78,917,2570,104,0,9,-57
585,0,78.21987915,15.64103317,36.9,12,56,8,10,1005.53,30,21.78,917,2574,104,0,9,-56
586,0,78.21987915,15.64106369,37.0,12,56,9,10,1005.55,30,21.78,916,2574,104,0,9,-57
587,0,78.21984863,15.64110565,37.0,12,56,10,10,1005.56,30,21.79,915,2575,104,0,9,-57
588,0,78.21984863,15.64113998,37.0,12,56,11,10,1005.54,30,21.79,915,2575,104,0,9,-58
589,0,78.21984863,15.64114380,37.0,12,56,12,10,1005.52,30,21.79,913,2575,104,0,9,-57
590,0,78.21984863,15.64113998,37.1,12,56,13,10,1005.53,30,21.79,913,2575,104,0,9,-58
591,0,78.21984863,15.64113235,37.0,12,56,14,10,1005.54,30,21.79,913,2565,104,0,9,-58
592,0,78.21984863,15.64112473,37.0,12,56,15,10,1005.56,30,21.79,912,2574,104,0,9,-58
593,0,78.21984863,15.64112091,37.0,12,56,16,10,1005.53,30,21.8,913,2574,104,0,9,-59
594,0,78.21984863,15.64113998,37.0,12,56,17,10,1005.52,30,21.79,914,2573,104,0,9,-59
595,0,78.21984863,15.64113235,36.9,12,56,18,10,1005.52,30,21.8,916,2573,104,0,9,-59
596,0,78.21984863,15.64112091,36.8,12,56,19,10,1005.52,30,21.8,916,2575,104,0,9,-58
597,0,78.21984863,15.64110947,36.8,12,56,20,10,1005.55,30,21.8,918,2573,104,0,9,-60
598,0,78.21984863,15.64110184,36.8,12,56,21,10,1005.56,30,21.8,919,2573,104,0,9,-58
599,0,78.21984863,15.64109421,36.8,12,56,22,10,1005.55,30,21.8,919,2574,104,0,9,-60
600,0,78.21984863,15.64108658,36.8,12,56,23,10,1005.56,30,21.8,918,2576,104,0,9,-58
601,0,78.21984863,15.64108276,36.8,12,56,24,10,1005.55,30,21.8,917,2575,104,0,9,-68
602,0,78.21984863,15.64107895,36.8,12,56,25,10,1005.55,30,21.8,916,2574,104,0,9,-53
603,0,78.21984863,15.64108276,36.8,12,56,26,10,1005.55,30,21.8,917,2574,104,0,9,-57
604,0,78.21984863,15.64107513,36.8,12,56,27,10,1005.55,30,21.81,916,2573,104,0,9,-56
605,0,78.21984863,15.64107513,36.8,12,56,28,10,1005.52,30,21.81,916,2574,104,0,9,-55
606,0,78.21984863,15.64107132,36.8,12,56,29,10,1005.53,30,21.81,915,2574,104,0,9,-55
607,0,78.21984863,15.64106369,36.8,12,56,30,10,1005.55,30,21.81,916,2569,104,0,9,-53
608,0,78.21984863,15.64106369,36.8,12,56,31,10,1005.56,30,21.81,916,2584,104,0,9,-53
609,0,78.21984863,15.64106369,36.8,12,56,32,10,1005.58,30,21.81,917,2574,104,0,9,-53
610,0,78.21984863,15.64106369,36.8,12,56,33,10,1005.57,30,21.81,918,2572,104,0,9,-53
611,0,78.21984863,15.64103699,36.8,12,56,34,10,1005.56,30,21.81,920,2573,104,0,9,-53
612,0,78.21984863,15.64104080,36.8,12,56,35,10,1005.57,30,21.81,921,2574,104,0,9,-53
613,0,78.21984863,15.64103699,36.8,12,56,36,10,1005.57,30,21.82,923,2574,104,0,9,-53
614,0,78.21984863,15.64102554,36.8,12,56,37,10,1005.53,30,21.81,924,2573,104,0,9,-53
615,0,78.21984863,15.64101410,36.8,12,56,38,10,1005.55,30,21.81,925,2577,104,0,9,-53
616,0,78.21984863,15.64100647,36.8,12,56,39,10,1005.5,30,21.82,926,2574,104,0,9,-55
617,0,78.21984863,15.64098358,36.8,12,56,40,10,1005.52,30,21.81,927,2572,104,0,9,-55
618,0,78.21984863,15.64095688,36.7,12,56,41,10,1005.53,30,21.81,928,2574,104,0,9,-54
619,0,78.21984863,15.64094925,36.7,12,56,42,10,1005.51,30,21.82,930,2575,104,0,9,-55
620,0,78.21984863,15.64093018,36.7,12,56,43,10,1005.53,30,21.82,932,2574,104,0,9,-55
621,0,78.21984863,15.64090347,36.7,12,56,44,10,1005.51,30,21.82,932,2574,104,0,9,-54
622,0,78.21984863,15.64092255,36.7,12,56,45,10,1005.52,30,21.82,932,2572,104,0,9,-54
623,0,78.21984863,15.64089966,36.7,12,56,46,10,1005.54,30,21.82,932,2578,104,0,9,-53
624,0,78.21984863,15.64090729,36.7,12,56,47,10,1005.54,30,21.82,932,2582,104,0,9,-53
625,0,78.21984863,15.64093781,36.8,12,56,48,9,1005.54,30,21.82,932,2575,104,0,9,-54
626,0,78.21984863,15.64095688,37.0,12,56,49,9,1005.57,30,21.82,933,2573,104,0,9,-55
627,0,78.21984863,15.64096832,37.1,12,56,50,9,1005.51,30,21.82,934,2572,104,0,9,-55
628,0,78.21984863,15.64096832,37.0,12,56,51,9,1005.53,30,21.82,934,2574,104,0,9,-56
629,0,78.21984863,15.64096451,37.0,12,56,52,9,1005.52,30,21.82,934,2573,104,0,9,-55
630,0,78.21984863,15.64098358,37.0,12,56,53,9,1005.55,30,21.83,935,2572,104,0,9,-55
631,0,78.21984863,15.64097595,37.1,12,56,54,9,1005.53,30,21.83,935,2561,104,0,9,-55
632,0,78.21984863,15.64099121,37.1,12,56,55,9,1005.53,30,21.83,933,2574,104,0,9,-55
633,0,78.21984863,15.64100266,37.2,12,56,56,9,1005.55,30,21.83,932,2575,104,0,9,-55
634,0,78.21984863,15.64099503,37.2,12,56,57,9,1005.57,30,21.83,932,2572,104,0,9,-55
635,0,78.21984863,15.64096832,37.2,12,56,58,10,1005.57,30,21.83,931,2573,104,0,9,-55
636,0,78.21984863,15.64094543,37.2,12,56,59,10,1005.56,30,21.83,930,2573,104,0,9,-55
637,0,78.21984863,15.64093781,37.2,12,57,0,11,1005.57,30,21.84,929,2573,104,0,9,-54
638,0,78.21984863,15.64092636,37.2,12,57,1,11,1005.52,30,21.84,930,2574,104,0,9,-54
639,0,78.21984863,15.64093781,37.2,12,57,2,11,1005.54,30,21.84,929,2574,104,0,9,-54
640,0,78.21984863,15.64092255,37.2,12,57,3,11,1005.58,30,21.84,928,2574,104,0,9,-54
641,0,78.21984863,15.64090347,37.2,12,57,4,11,1005.56,30,21.84,928,2570,104,0,9,-54
642,0,78.21984863,15.64087677,37.2,12,57,5,11,1005.56,30,21.85,927,2562,104,0,9,-54
643,0,78.21984863,15.64085007,37.2,12,57,6,11,1005.55,30,21.84,926,2573,104,0,9,-54
644,0,78.21984863,15.64083481,37.2,12,57,7,11,1005.51,30,21.85,926,2572,104,0,9,-55
645,0,78.21984863,15.64081955,37.2,12,57,8,11,1005.51,30,21.84,925,2573,104,0,9,-55
646,0,78.21984863,15.64081192,37.2,12,57,9,11,1005.56,30,21.85,924,2571,104,0,9,-54
647,0,78.21984863,15.64077377,37.3,12,57,10,11,1005.53,30,21.84,924,2573,104,0,9,-54
648,0,78.21984863,15.64073181,37.3,12,57,11,11,1005.53,30,21.84,923,2575,104,0,9,-54
649,0,78.21984863,15.64075089,37.3,12,57,12,11,1005.53,30,21.84,923,2575,104,0,9,-55
650,0,78.21984863,15.64073944,37.3,12,57,13,11,1005.51,30,21.84,921,2573,104,0,9,-54
651,0,78.21984863,15.64072418,37.3,12,57,14,11,1005.55,30,21.85,920,2572,104,0,9,-54
652,0,78.21984863,15.64069748,37.3,12,57,15,10,1005.55,30,21.85,919,2573,104,0,9,-54
653,0,78.21984863,15.64068222,37.2,12,57,16,10,1005.53,30,21.85,919,2573,104,0,9,-54
654,0,78.21987915,15.64066696,37.3,12,57,17,10,1005.53,30,21.86,921,2573,104,0,9,-54
655,0,78.21987915,15.64065170,37.3,12,57,18,10,1005.57,30,21.85,921,2572,104,0,9,-54
656,0,78.21987915,15.64062881,37.3,12,57,19,10,1005.56,30,21.86,921,2572,104,0,9,-54
657,0,78.21987915,15.64062500,37.3,12,57,20,10,1005.58,30,21.86,923,2574,104,0,9,-55
658,0,78.21987915,15.64064026,37.4,12,57,21,9,1005.54,30,21.86,924,2575,104,0,9,-55
659,0,78.21987915,15.64063263,37.4,12,57,22,9,1005.55,30,21.86,925,2573,104,0,9,-55
660,0,78.21987915,15.64060974,37.4,12,57,23,9,1005.54,30,21.86,924,2572,104,0,9,-55
661,0,78.21987915,15.64060211,37.4,12,57,24,9,1005.56,30,21.86,924,2572,104,0,9,-55
662,0,78.21987915,15.64060211,37.4,12,57,25,9,1005.54,30,21.86,925,2572,104,0,9,-55
663,0,78.21987915,15.64059448,37.4,12,57,26,9,1005.55,30,21.87,923,2571,104,0,9,-55
664,0,78.21987915,15.64058685,37.4,12,57,27,9,1005.55,30,21.86,923,2571,104,0,9,-54
665,0,78.21987915,15.64058685,37.4,12,57,28,9,1005.55,30,21.86,922,2566,104,0,9,-54
666,0,78.21987915,15.64058304,37.4,12,57,29,10,1005.53,30,21.86,922,2560,104,0,9,-55
667,0,78.21987915,15.64058304,37.4,12,57,30,10,1005.52,30,21.86,920,2572,104,0,9,-57
668,0,78.21987915,15.64056778,37.4,12,57,31,10,1005.55,30,21.86,919,2572,104,0,9,-57
669,0,78.21987915,15.64055634,37.4,12,57,32,10,1005.54,30,21.86,918,2573,104,0,9,-56
670,0,78.21987915,15.64054108,37.4,12,57,33,10,1005.56,30,21.87,917,2572,104,0,9,-56
671,0,78.21987915,15.64052200,37.5,12,57,34,10,1005.55,30,21.87,917,2572,104,0,9,-56
672,0,78.21987915,15.64052200,37.5,12,57,35,10,1005.53,30,21.86,916,2573,104,0,9,-56
673,0,78.21987915,15.64051437,37.4,12,57,36,10,1005.54,30,21.87,916,2571,104,0,9,-56
674,0,78.21987915,15.64051056,37.4,12,57,37,10,1005.54,30,21.87,915,2573,104,0,9,-56
675,0,78.21987915,15.64049911,37.4,12,57,38,10,1005.53,30,21.87,914,2572,104,0,9,-56
676,0,78.21987915,15.64050674,37.4,12,57,39,10,1005.54,30,21.87,914,2572,104,0,9,-56
677,0,78.21987915,15.64050674,37.4,12,57,40,10,1005.53,30,21.87,913,2572,104,0,9,-56
678,0,78.21987915,15.64051056,37.4,12,57,41,10,1005.53,30,21.87,912,2572,104,0,9,-56
679,0,78.21987915,15.64050674,37.4,12,57,42,10,1005.57,30,21.87,912,2571,104,0,9,-57
680,0,78.21987915,15.64052200,37.4,12,57,43,10,1005.55,30,21.87,911,2572,104,0,9,-57
681,0,78.21987915,15.64052963,37.4,12,57,44,10,1005.53,30,21.87,910,2571,104,0,9,-57
682,0,78.21987915,15.64053345,37.4,12,57,45,10,1005.52,30,21.87,911,2574,104,0,9,-56
683,0,78.21987915,15.64053345,37.4,12,57,46,10,1005.51,30,21.87,910,2572,104,0,9,-56
684,0,78.21987915,15.64053726,37.4,12,57,47,10,1005.54,30,21.87,910,2572,104,0,9,-56
685,0,78.21987915,15.64054108,37.4,12,57,48,10,1005.53,30,21.87,909,2572,104,0,9,-57
686,0,78.21987915,15.64054108,37.4,12,57,49,10,1005.54,30,21.88,908,2571,104,0,9,-56
687,0,78.21987915,15.64053345,37.4,12,57,50,10,1005.52,30,21.87,908,2572,104,0,9,-56
688,0,78.21987915,15.64052582,37.4,12,57,51,9,1005.54,30,21.88,908,2571,104,0,9,-57
689,0,78.21987915,15.64052200,37.3,12,57,52,9,1005.56,30,21.88,910,2571,104,0,9,-58
690,0,78.21987915,15.64051437,37.3,12,57,53,9,1005.51,30,21.88,911,2575,104,0,9,-53
691,0,78.21987915,15.64051437,37.3,12,57,54,9,1005.52,30,21.88,912,2571,104,0,9,-59
692,0,78.21987915,15.64052200,37.3,12,57,55,10,1005.57,30,21.88,912,2571,104,0,9,-56
693,0,78.21987915,15.64052582,37.3,12,57,56,10,1005.54,30,21.88,911,2572,104,0,9,-56
694,0,78.21987915,15.64052582,37.2,12,57,57,10,1005.54,30,21.88,914,2570,104,0,9,-55
695,0,78.21987915,15.64052582,37.2,12,57,58,10,1005.54,30,21.89,913,2570,104,0,9,-55
696,0,78.21987915,15.64052200,37.2,12,57,59,10,1005.54,30,21.89,914,2573,104,0,9,-56
697,0,78.21987915,15.64052200,37.2,12,58,0,10,1005.53,30,21.88,915,2571,104,0,9,-55
698,0,78.21987915,15.64052582,37.2,12,58,1,9,1005.55,30,21.89,915,2573,104,0,9,-55
699,0,78.21987915,15.64052963,37.2,12,58,2,9,1005.52,30,21.89,916,2570,104,0,9,-54
700,0,78.21987915,15.64053345,37.2,12,58,3,9,1005.55,30,21.89,915,2571,104,0,9,-54
701,0,78.21990967,15.64052963,37.2,12,58,4,9,1005.56,30,21.89,916,2571,104,0,9,-53
702,0,78.21990967,15.64051819,37.1,12,58,5,9,1005.53,30,21.89,915,2572,104,0,9,-53
703,0,78.21990967,15.64051437,37.2,12,58,6,9,1005.53,30,21.89,916,2571,104,0,9,-53
704,0,78.21990967,15.64051056,37.2,12,58,7,9,1005.54,30,21.89,917,2575,104,0,9,-54
705,0,78.21990967,15.64051056,37.2,12,58,8,9,1005.51,30,21.89,916,2569,104,0,9,-54
706,0,78.21990967,15.64050674,37.1,12,58,9,9,1005.54,30,21.89,916,2571,104,0,9,-55
707,0,78.21990967,15.64049911,37.1,12,58,10,9,1005.54,30,21.89,916,2571,104,0,9,-54
708,0,78.21990967,15.64049530,37.1,12,58,11,9,1005.55,30,21.9,917,2571,104,0,9,-55
709,0,78.21990967,15.64050293,37.1,12,58,12,9,1005.56,30,21.9,917,2571,104,0,9,-55
710,0,78.21990967,15.64050674,37.1,12,58,13,9,1005.57,30,21.9,916,2570,104,0,9,-56
711,0,78.21990967,15.64050293,37.2,12,58,14,9,1005.54,30,21.9,916,2571,104,0,9,-56
712,0,78.21990967,15.64050674,37.2,12,58,15,9,1005.54,30,21.9,918,2584,104,0,9,-56
713,0,78.21990967,15.64050293,37.2,12,58,16,9,1005.54,30,21.9,918,2572,104,0,9,-55
714,0,78.21990967,15.64049530,37.1,12,58,17,9,1005.55,30,21.9,918,2572,104,0,9,-53
715,0,78.21990967,15.64049530,37.1,12,58,18,10,1005.56,30,21.9,920,2570,104,0,9,-53
716,0,78.21990967,15.64050293,37.1,12,58,19,10,1005.55,30,21.9,920,2571,104,0,9,-53
717,0,78.21990967,15.64050674,37.1,12,58,20,10,1005.56,30,21.9,919,2571,104,0,9,-58
718,0,78.21990967,15.64052200,37.1,12,58,21,10,1005.53,30,21.9,919,2570,104,0,9,-54
719,0,78.21994019,15.64052963,37.0,12,58,22,10,1005.55,30,21.9,918,2568,104,0,9,-61
720,0,78.21990967,15.64051819,37.0,12,58,23,10,1005.56,30,21.91,917,2571,104,0,9,-58
721,0,78.21990967,15.64049911,37.0,12,58,24,10,1005.55,30,21.91,916,2571,104,0,9,-57
722,0,78.21994019,15.64049149,36.9,12,58,25,10,1005.57,30,21.91,916,2571,104,0,9,-55
723,0,78.21994019,15.64049149,36.9,12,58,26,10,1005.55,30,21.91,915,2572,104,0,9,-54
724,0,78.21994019,15.64048767,36.9,12,58,27,10,1005.6,30,21.91,916,2570,104,0,9,-54
725,0,78.21994019,15.64049149,36.9,12,58,28,10,1005.63,30,21.91,915,2569,104,0,9,-55
726,0,78.21994019,15.64048767,36.9,12,58,29,10,1005.58,30,21.91,916,2572,104,0,9,-56
727,0,78.21994019,15.64048004,37.2,12,58,30,10,1005.56,30,21.91,917,2573,104,0,9,-55
728,0,78.21994019,15.64048004,37.4,12,58,31,10,1005.59,30,21.91,918,2571,104,0,9,-55
729,0,78.21994019,15.64048004,37.5,12,58,32,10,1005.58,30,21.91,918,2571,104,0,9,-55
730,0,78.21994019,15.64048386,37.4,12,58,33,10,1005.55,30,21.91,917,2571,104,0,9,-55
731,0,78.21994019,15.64048767,37.4,12,58,34,9,1005.57,30,21.92,916,2570,104,0,9,-55
732,0,78.21994019,15.64047241,37.3,12,58,35,9,1005.59,30,21.92,917,2572,104,0,9,-55
733,0,78.21994019,15.64047623,37.3,12,58,36,9,1005.56,30,21.92,916,2571,104,0,9,-61
734,0,78.21994019,15.64047623,37.3,12,58,37,9,1005.55,30,21.92,915,2570,104,0,9,-63
735,0,78.21994019,15.64047623,37.3,12,58,38,9,1005.57,30,21.92,914,2574,104,0,9,-63
736,0,78.21994019,15.64046860,37.3,12,58,39,9,1005.56,30,21.92,914,2570,104,0,9,-63
737,0,78.21994019,15.64046097,37.3,12,58,40,9,1005.58,30,21.93,914,2570,104,0,9,-62
738,0,78.21994019,15.64045715,37.3,12,58,41,9,1005.55,30,21.93,912,2568,104,0,9,-62
739,0,78.21994019,15.64045334,37.2,12,58,42,9,1005.58,30,21.93,913,2571,104,0,9,-62
740,0,78.21994019,15.64045334,37.3,12,58,43,9,1005.56,30,21.93,914,2570,104,0,9,-62
741,0,78.21994019,15.64044571,37.3,12,58,44,10,1005.58,30,21.93,915,2569,104,0,9,-62
742,0,78.21994019,15.64044189,37.3,12,58,45,10,1005.57,30,21.93,916,2570,104,0,9,-62
743,0,78.21994019,15.64043427,37.3,12,58,46,10,1005.58,30,21.94,915,2571,104,0,9,-61
744,0,78.21994019,15.64043045,37.2,12,58,47,10,1005.6,30,21.94,915,2571,104,0,9,-61
745,0,78.21994019,15.64043045,37.3,12,58,48,10,1005.57,30,21.94,916,2570,104,0,9,-63
746,0,78.21994019,15.64043045,37.3,12,58,49,10,1005.58,30,21.94,915,2571,104,0,9,-63
747,0,78.21994019,15.64043427,37.4,12,58,50,10,1005.59,30,21.94,916,2572,104,0,9,-62
748,0,78.21994019,15.64043808,37.4,12,58,51,11,1005.56,30,21.94,916,2570,104,0,9,-63
749,0,78.21994019,15.64043808,37.3,12,58,52,11,1005.61,30,21.95,915,2571,104,0,9,-57
750,0,78.21994019,15.64044189,37.3,12,58,53,12,1005.59,30,21.95,917,2570,104,0,9,-55
751,0,78.21994019,15.64044189,37.3,12,58,54,12,1005.59,30,21.94,918,2582,104,0,9,-55
752,0,78.21994019,15.64044189,37.3,12,58,55,12,1005.59,30,21.95,918,2570,104,0,9,-55
753,0,78.21994019,15.64043808,37.3,12,58,56,12,1005.57,30,21.95,919,2569,104,0,9,-57
754,0,78.21994019,15.64043045,37.3,12,58,57,12,1005.58,30,21.94,919,2569,104,0,9,-58
755,0,78.21994019,15.64043808,37.3,12,58,58,12,1005.55,30,21.94,920,2570,104,0,9,-59
756,0,78.21994019,15.64043045,37.3,12,58,59,12,1005.54,30,21.95,920,2568,104,0,9,-61
757,0,78.21994019,15.64043427,37.2,12,59,0,12,1005.54,30,21.95,919,2570,104,0,9,-56
758,0,78.21994019,15.64042664,37.2,12,59,1,12,1005.56,30,21.94,920,2570,104,0,9,-56
759,0,78.21994019,15.64041519,37.2,12,59,2,12,1005.54,30,21.95,921,2572,104,0,9,-56
760,0,78.21994019,15.64040375,37.2,12,59,3,12,1005.54,30,21.95,922,2570,104,0,9,-56
761,0,78.21994019,15.64040375,37.2,12,59,4,12,1005.55,30,21.95,923,2570,104,0,9,-56
762,0,78.21994019,15.64039993,37.2,12,59,5,12,1005.58,30,21.95,924,2571,104,0,9,-56
763,0,78.21994019,15.64039230,37.2,12,59,6,12,1005.56,30,21.95,924,2571,104,0,9,-56
764,0,78.21994019,15.64038467,37.2,12,59,7,12,1005.54,30,21.95,924,2569,104,0,9,-57
765,0,78.21994019,15.64038086,37.2,12,59,8,12,1005.55,30,21.95,924,2571,104,0,9,-57
766,0,78.21994019,15.64037704,37.2,12,59,9,12,1005.54,30,21.95,923,2569,104,0,9,-56
767,0,78.21994019,15.64036942,37.2,12,59,10,12,1005.56,30,21.95,922,2570,104,0,9,-56
768,0,78.21994019,15.64036942,37.2,12,59,11,12,1005.54,30,21.95,921,2570,104,0,9,-56
769,0,78.21994019,15.64036560,37.1,12,59,12,12,1005.53,30,21.95,921,2573,104,0,9,-57
770,0,78.21994019,15.64036942,37.1,12,59,13,12,1005.53,30,21.96,921,2570,104,0,9,-57
771,0,78.21994019,15.64036942,37.1,12,59,14,12,1005.51,30,21.96,920,2569,104,0,9,-57
772,0,78.21994019,15.64036560,37.1,12,59,15,11,1005.53,30,21.95,920,2571,104,0,9,-57
773,0,78.21994019,15.64036942,37.1,12,59,16,10,1005.54,30,21.95,920,2569,104,0,9,-57
774,0,78.21994019,15.64036942,37.1,12,59,17,11,1005.53,30,21.96,919,2569,104,0,9,-57
775,0,78.21994019,15.64037704,37.1,12,59,18,11,1005.52,30,21.96,920,2569,104,0,9,-58
776,0,78.21994019,15.64038086,37.1,12,59,19,11,1005.54,30,21.96,921,2579,104,0,9,-57
777,0,78.21994019,15.64037704,37.1,12,59,20,11,1005.53,30,21.96,921,2570,104,0,9,-58
778,0,78.21994019,15.64037704,37.1,12,59,21,11,1005.54,30,21.96,922,2569,104,0,9,-57
779,0,78.21994019,15.64037704,37.1,12,59,22,10,1005.55,30,21.96,922,2571,104,0,9,-61
780,0,78.21994019,15.64037704,37.2,12,59,23,10,1005.56,30,21.96,922,2570,104,0,9,-57
781,0,78.21994019,15.64037323,37.1,12,59,24,10,1005.53,30,21.96,923,2570,104,0,9,-54
783,0,78.21994019,15.64037704,37.1,12,59,26,10,1005.54,30,21.96,922,2572,104,0,9,-54
784,0,78.21994019,15.64037704,37.1,12,59,27,10,1005.56,30,21.97,922,2571,104,0,9,-53
785,0,78.21994019,15.64037704,37.1,12,59,28,11,1005.54,30,21.96,921,2568,104,0,9,-54
786,0,78.21994019,15.64038086,37.1,12,59,29,11,1005.53,30,21.96,920,2569,104,0,9,-53
787,0,78.21994019,15.64038086,37.1,12,59,30,11,1005.54,30,21.96,920,2568,104,0,9,-53
788,0,78.21994019,15.64037704,37.1,12,59,31,11,1005.54,30,21.97,921,2568,104,0,9,-60
789,0,78.21994019,15.64037323,37.1,12,59,32,11,1005.55,30,21.97,921,2569,104,0,9,-60
790,0,78.21994019,15.64036560,37.1,12,59,33,10,1005.54,30,21.96,921,2569,104,0,9,-59
791,0,78.21994019,15.64036942,37.1,12,59,34,10,1005.55,30,21.97,920,2567,104,0,9,-57
792,0,78.21994019,15.64036179,37.1,12,59,35,10,1005.52,30,21.97,918,2574,104,0,9,-57
793,0,78.21994019,15.64036179,37.1,12,59,36,10,1005.53,30,21.97,920,2569,104,0,9,-55
794,0,78.21994019,15.64036179,37.1,12,59,37,10,1005.54,30,21.97,921,2568,104,0,9,-55
795,0,78.21994019,15.64036560,37.1,12,59,38,10,1005.53,30,21.97,921,2571,104,0,9,-56
796,0,78.21994019,15.64036560,37.1,12,59,39,10,1005.52,30,21.97,921,2568,104,0,9,-57
797,0,78.21994019,15.64036942,37.1,12,59,40,10,1005.52,30,21.97,922,2568,104,0,9,-57
798,0,78.21994019,15.64036942,37.0,12,59,41,9,1005.53,30,21.97,922,2568,104,0,9,-57
799,0,78.21994019,15.64037323,37.1,12,59,42,10,1005.53,30,21.97,923,2566,104,0,9,-57
800,0,78.21994019,15.64036942,37.2,12,59,43,10,1005.55,30,21.98,923,2563,104,0,9,-57
801,0,78.21994019,15.64036179,37.2,12,59,44,10,1005.5,30,21.97,923,2569,104,0,9,-58
802,0,78.21994019,15.64035034,37.2,12,59,45,10,1005.54,30,21.98,922,2568,104,0,9,-57
803,0,78.21994019,15.64035034,37.2,12,59,46,10,1005.56,30,21.98,923,2567,104,0,9,-57
804,0,78.21994019,15.64035034,37.2,12,59,47,9,1005.52,30,21.98,923,2568,104,0,9,-57
805,0,78.21994019,15.64035034,37.2,12,59,48,10,1005.55,30,21.98,923,2568,104,0,9,-56
806,0,78.21994019,15.64035034,37.2,12,59,49,11,1005.54,30,21.97,923,2569,104,0,9,-57
807,0,78.21994019,15.64035416,37.2,12,59,50,11,1005.54,30,21.98,924,2568,104,0,9,-56
808,0,78.21994019,15.64036179,37.2,12,59,51,11,1005.54,30,21.98,923,2570,104,0,9,-57
809,0,78.21994019,15.64037323,37.1,12,59,52,11,1005.56,30,21.98,924,2568,104,0,9,-57
810,0,78.21994019,15.64038467,37.4,12,59,53,11,1005.53,30,21.98,925,2568,104,0,9,-60
811,0,78.21994019,15.64038467,37.8,12,59,54,11,1005.54,30,21.98,925,2569,104,0,9,-58
812,0,78.21994019,15.64038467,37.9,12,59,55,11,1005.59,30,21.98,924,2568,104,0,9,-58
813,0,78.21994019,15.64038467,37.8,12,59,56,11,1005.57,30,21.98,925,2566,104,0,9,-58
814,0,78.21994019,15.64038849,37.7,12,59,57,12,1005.58,30,21.99,924,2570,104,0,9,-58
815,0,78.21994019,15.64040375,37.7,12,59,58,11,1005.6,30,21.99,923,2564,104,0,9,-59
816,0,78.21994019,15.64041519,37.8,12,59,59,11,1005.58,30,21.98,922,2571,104,0,9,-58
817,0,78.21994019,15.64042282,37.8,13,0,0,10,1005.57,30,21.99,922,2567,104,0,9,-60
818,0,78.21994019,15.64042664,37.8,13,0,1,11,1005.57,30,21.98,923,2569,104,0,9,-60
819,0,78.21994019,15.64041519,37.8,13,0,2,11,1005.58,30,21.99,923,2569,104,0,9,-60
820,0,78.21994019,15.64041901,37.8,13,0,3,11,1005.59,30,21.99,925,2569,104,0,9,-60
821,0,78.21994019,15.64042282,37.8,13,0,4,11,1005.58,30,21.99,924,2569,104,0,9,-58
822,0,78.21994019,15.64041138,37.8,13,0,5,11,1005.56,30,21.99,923,2567,104,0,9,-58
823,0,78.21994019,15.64040756,37.8,13,0,6,11,1005.6,30,21.99,922,2566,104,0,9,-58
824,0,78.21994019,15.64041901,37.8,13,0,7,11,1005.56,30,21.99,921,2566,104,0,9,-58
825,0,78.21994019,15.64042664,37.9,13,0,8,11,1005.55,30,21.99,921,2569,104,0,9,-55
826,0,78.21994019,15.64043427,38.1,13,0,9,11,1005.55,30,21.99,919,2569,104,0,9,-56
827,0,78.21994019,15.64043045,38.1,13,0,10,11,1005.59,30,21.99,919,2569,104,0,9,-56
828,0,78.21994019,15.64042664,38.1,13,0,11,11,1005.57,30,21.99,920,2565,104,0,9,-56
829,0,78.21994019,15.64044189,38.1,13,0,12,11,1005.57,30,21.99,920,2568,104,0,9,-56
830,0,78.21994019,15.64044952,38.1,13,0,13,11,1005.58,30,21.99,919,2568,104,0,9,-56
831,0,78.21994019,15.64045334,38.1,13,0,14,11,1005.58,30,21.99,920,2568,104,0,9,-57
832,0,78.21994019,15.64045715,38.1,13,0,15,12,1005.58,30,21.99,921,2569,104,0,9,-57
833,0,78.21994019,15.64047623,38.1,13,0,16,12,1005.57,30,21.99,920,2569,104,0,9,-57
834,0,78.21994019,15.64049149,38.1,13,0,17,12,1005.57,30,21.99,920,2568,104,0,9,-57
835,0,78.21994019,15.64049911,38.2,13,0,18,11,1005.58,30,21.99,920,2568,104,0,9,-57
836,0,78.21994019,15.64050674,38.2,13,0,19,12,1005.58,30,21.99,920,2568,104,0,9,-56
837,0,78.21994019,15.64050674,38.2,13,0,20,12,1005.56,30,21.99,921,2567,104,0,9,-56
838,0,78.21994019,15.64050674,38.2,13,0,21,12,1005.6,30,22.0,922,2569,104,0,9,-57
839,0,78.21994019,15.64050293,38.2,13,0,22,12,1005.58,30,22.0,922,2569,104,0,9,-55
840,0,78.21994019,15.64049149,38.2,13,0,23,12,1005.53,30,22.0,922,2570,104,0,9,-57
841,0,78.21994019,15.64047623,38.2,13,0,24,12,1005.55,30,22.0,920,2569,104,0,9,-56
842,0,78.21994019,15.64046478,38.1,13,0,25,12,1005.52,30,22.0,919,2569,104,0,9,-57
843,0,78.21994019,15.64045715,38.1,13,0,26,12,1005.55,30,22.0,919,2568,104,0,9,-57
844,0,78.21994019,15.64043427,38.0,13,0,27,12,1005.56,30,22.01,918,2568,104,0,9,-57
845,0,78.21994019,15.64041901,38.0,13,0,28,12,1005.54,30,22.0,919,2569,104,0,9,-57
846,0,78.21997070,15.64041138,37.9,13,0,29,12,1005.55,30,22.0,919,2567,104,0,9,-57
847,0,78.21997070,15.64040375,37.9,13,0,30,12,1005.56,30,22.0,918,2569,104,0,9,-57
848,0,78.21997070,15.64038849,37.9,13,0,31,12,1005.55,30,22.01,918,2567,104,0,9,-57
849,0,78.21997070,15.64038086,37.8,13,0,32,12,1005.56,30,22.01,917,2575,104,0,9,-57
850,0,78.21997070,15.64035034,37.7,13,0,33,12,1005.57,30,22.0,916,2568,104,0,9,-55
851,0,78.21997070,15.64033127,37.6,13,0,34,12,1005.56,30,22.01,918,2567,104,0,9,-57
852,0,78.21997070,15.64031601,37.6,13,0,35,11,1005.55,30,22.01,918,2566,104,0,9,-56
853,0,78.21997070,15.64030838,37.5,13,0,36,11,1005.58,30,22.01,919,2567,104,0,9,-57
854,0,78.21997070,15.64030838,37.5,13,0,37,12,1005.54,30,22.01,919,2567,104,0,9,-56
855,0,78.21997070,15.64030838,37.5,13,0,38,12,1005.55,30,22.01,918,2567,104,0,9,-57
856,0,78.21997070,15.64030075,37.4,13,0,39,11,1005.56,30,22.01,918,2572,104,0,9,-57
857,0,78.21997070,15.64030457,37.4,13,0,40,11,1005.59,30,22.01,919,2568,104,0,9,-56
858,0,78.21997070,15.64030838,37.4,13,0,41,11,1005.61,30,22.01,920,2568,104,0,9,-57
859,0,78.21997070,15.64031601,37.4,13,0,42,11,1005.6,30,22.01,920,2566,104,0,9,-56
860,0,78.21997070,15.64031219,37.4,13,0,43,11,1005.6,30,22.01,920,2567,104,0,9,-57
861,0,78.21997070,15.64031601,37.4,13,0,44,11,1005.59,30,22.01,922,2568,104,0,9,-57
862,0,78.21997070,15.64031601,37.3,13,0,45,11,1005.59,30,22.02,923,2568,104,0,9,-57
863,0,78.21997070,15.64030838,37.3,13,0,46,11,1005.55,30,22.01,923,2560,104,0,9,-57
864,0,78.21997070,15.64030457,37.3,13,0,47,11,1005.56,30,22.02,922,2577,104,0,9,-57
865,0,78.21997070,15.64030838,37.3,13,0,48,11,1005.53,30,22.01,922,2567,104,0,9,-57
866,0,78.21997070,15.64030838,37.3,13,0,49,11,1005.54,30,22.01,920,2568,104,0,9,-57
867,0,78.21997070,15.64030838,37.2,13,0,50,11,1005.54,30,22.01,919,2567,104,0,9,-57
868,0,78.21997070,15.64031219,37.1,13,0,51,11,1005.54,30,22.01,919,2568,104,0,9,-57
869,0,78.21997070,15.64031601,37.1,13,0,52,11,1005.54,30,22.02,919,2567,104,0,9,-57
870,0,78.21997070,15.64031982,37.0,13,0,53,11,1005.56,30,22.02,920,2567,104,0,9,-58
871,0,78.21997070,15.64032745,37.0,13,0,54,11,1005.54,30,22.02,920,2571,104,0,9,-57
872,0,78.21997070,15.64033127,37.0,13,0,55,11,1005.53,30,22.02,920,2568,104,0,9,-57
873,0,78.21997070,15.64032745,37.0,13,0,56,10,1005.53,30,22.02,919,2567,104,0,9,-57
874,0,78.21997070,15.64032745,37.0,13,0,57,10,1005.51,30,22.03,919,2566,104,0,9,-57
875,0,78.21997070,15.64032745,37.0,13,0,58,10,1005.57,30,22.03,919,2568,104,0,9,-57
876,0,78.21997070,15.64033127,37.0,13,0,59,10,1005.56,30,22.02,919,2567,104,0,9,-58
877,0,78.21997070,15.64033508,37.0,13,1,0,10,1005.53,30,22.03,919,2568,104,0,9,-57
878,0,78.21997070,15.64033508,37.0,13,1,1,11,1005.52,30,22.03,919,2569,104,0,9,-57
879,0,78.21997070,15.64033508,37.0,13,1,2,11,1005.53,30,22.03,918,2565,104,0,9,-54
880,0,78.21997070,15.64033127,37.0,13,1,3,11,1005.54,30,22.03,918,2566,104,0,9,-55
881,0,78.21997070,15.64032364,37.0,13,1,4,11,1005.54,30,22.03,918,2567,104,0,9,-58
882,0,78.21997070,15.64031982,37.0,13,1,5,11,1005.55,30,22.03,918,2567,104,0,9,-57
883,0,78.21997070,15.64031219,37.0,13,1,6,11,1005.55,30,22.03,919,2567,104,0,9,-59
884,0,78.21997070,15.64030838,37.0,13,1,7,11,1005.53,30,22.03,919,2566,104,0,9,-60
885,0,78.21997070,15.64030838,37.0,13,1,8,11,1005.52,30,22.04,919,2567,104,0,9,-60
886,0,78.21997070,15.64030457,37.0,13,1,9,11,1005.53,30,22.04,921,2565,104,0,9,-60
887,0,78.21997070,15.64029694,37.0,13,1,10,11,1005.51,30,22.04,920,2567,104,0,9,-56
888,0,78.21997070,15.64030838,37.0,13,1,11,11,1005.53,30,22.04,920,2566,104,0,9,-57
889,0,78.21997070,15.64030075,37.0,13,1,12,11,1005.6,30,22.04,919,2567,104,0,9,-56
890,0,78.21997070,15.64030075,37.0,13,1,13,11,1005.54,30,22.05,921,2567,104,0,9,-56
891,0,78.21997070,15.64029312,37.0,13,1,14,11,1005.55,30,22.05,921,2567,104,0,9,-56
892,0,78.21997070,15.64027405,37.0,13,1,15,11,1005.57,30,22.05,922,2566,104,0,9,-57
893,0,78.21997070,15.64027023,37.1,13,1,16,11,1005.57,30,22.05,924,2567,104,0,9,-57
894,0,78.21997070,15.64027023,37.0,13,1,17,11,1005.55,30,22.05,924,2567,104,0,9,-57
895,0,78.21997070,15.64027786,37.1,13,1,18,11,1005.53,30,22.05,924,2568,104,0,9,-56
896,0,78.21997070,15.64028549,37.1,13,1,19,10,1005.58,30,22.05,923,2574,104,0,9,-56
897,0,78.21997070,15.64028931,37.1,13,1,20,10,1005.6,30,22.05,924,2566,104,0,9,-57
898,0,78.21997070,15.64028549,37.1,13,1,21,11,1005.61,30,22.05,925,2566,104,0,9,-56
899,0,78.21997070,15.64028549,37.1,13,1,22,11,1005.61,30,22.05,925,2565,104,0,9,-55
900,0,78.21997070,15.64029312,37.1,13,1,23,11,1005.6,30,22.05,925,2567,104,0,9,-62
901,0,78.21997070,15.64028549,37.1,13,1,24,11,1005.61,30,22.05,927,2566,104,0,9,-57
902,0,78.21997070,15.64028931,37.1,13,1,25,11,1005.61,30,22.05,926,2567,104,0,9,-58
903,0,78.21997070,15.64029694,37.1,13,1,26,11,1005.6,30,22.06,925,2567,104,0,9,-58
904,0,78.21997070,15.64030075,37.1,13,1,27,11,1005.57,30,22.06,925,2574,104,0,9,-58
905,0,78.21997070,15.64030075,37.1,13,1,28,11,1005.58,30,22.06,924,2567,104,0,9,-58
906,0,78.21997070,15.64029694,37.2,13,1,29,11,1005.59,30,22.05,923,2567,104,0,9,-59
907,0,78.21997070,15.64029312,37.2,13,1,30,11,1005.58,30,22.05,923,2566,104,0,9,-58
908,0,78.21997070,15.64031219,37.2,13,1,31,12,1005.55,30,22.05,923,2566,104,0,9,-58
909,0,78.21997070,15.64032364,37.2,13,1,32,11,1005.6,30,22.06,922,2568,104,0,9,-58
910,0,78.21997070,15.64034271,37.3,13,1,33,11,1005.57,30,22.05,921,2566,104,0,9,-58
911,0,78.21997070,15.64035034,37.3,13,1,34,11,1005.55,30,22.06,921,2560,104,0,9,-58
912,0,78.21997070,15.64037323,37.4,13,1,35,10,1005.54,30,22.06,923,2566,104,0,9,-61
913,0,78.21997070,15.64038849,37.4,13,1,36,10,1005.56,30,22.06,923,2568,104,0,9,-62
914,0,78.21997070,15.64040375,37.4,13,1,37,10,1005.55,30,22.06,923,2565,104,0,9,-60
915,0,78.21997070,15.64041901,37.5,13,1,38,11,1005.53,30,22.06,922,2566,104,0,9,-61
916,0,78.21994019,15.64044571,37.5,13,1,39,11,1005.56,30,22.06,922,2566,104,0,9,-60
917,0,78.21994019,15.64047241,37.6,13,1,40,11,1005.52,30,22.06,921,2566,104,0,9,-60
918,0,78.21994019,15.64049149,37.6,13,1,41,11,1005.58,30,22.07,920,2565,104,0,9,-60
919,0,78.21994019,15.64050674,37.7,13,1,42,10,1005.57,30,22.07,922,2566,104,0,9,-60
920,0,78.21994019,15.64051819,37.8,13,1,43,10,1005.57,30,22.07,921,2566,104,0,9,-60
921,0,78.21997070,15.64053345,37.8,13,1,44,11,1005.58,30,22.08,920,2567,104,0,9,-67
922,0,78.21997070,15.64055252,37.9,13,1,45,11,1005.55,30,22.07,919,2564,104,0,9,-67
923,0,78.21997070,15.64058685,37.9,13,1,46,11,1005.59,30,22.07,919,2564,104,0,9,-58
924,0,78.21997070,15.64062881,37.9,13,1,47,11,1005.55,30,22.08,918,2564,104,0,9,-59
925,0,78.21997070,15.64065552,37.9,13,1,48,10,1005.56,30,22.08,919,2565,104,0,9,-60
926,0,78.21994019,15.64067841,38.0,13,1,49,10,1005.6,30,22.08,919,2565,104,0,9,-58
927,0,78.21994019,15.64069366,38.0,13,1,50,10,1005.56,30,22.08,919,2565,104,0,9,-58
928,0,78.21994019,15.64070511,38.0,13,1,51,10,1005.58,30,22.09,918,2555,104,0,9,-58
929,0,78.21994019,15.64073181,38.1,13,1,52,10,1005.55,30,22.08,918,2565,104,0,9,-59
930,0,78.21994019,15.64074707,38.1,13,1,53,10,1005.59,30,22.09,919,2564,104,0,9,-59
931,0,78.21994019,15.64075470,38.1,13,1,54,10,1005.56,30,22.09,918,2564,104,0,9,-59
932,0,78.21994019,15.64076233,38.1,13,1,55,10,1005.56,30,22.08,918,2564,104,0,9,-59
933,0,78.21994019,15.64077377,38.2,13,1,56,10,1005.54,30,22.08,918,2563,104,0,9,-60
934,0,78.21994019,15.64078903,38.2,13,1,57,10,1005.56,30,22.09,918,2563,104,0,9,-59
935,0,78.21994019,15.64080048,38.2,13,1,58,10,1005.55,30,22.09,918,2583,104,0,9,-64
936,0,78.21994019,15.64081192,38.2,13,1,59,10,1005.54,30,22.09,917,2564,104,0,9,-71
937,0,78.21994019,15.64082336,38.2,13,2,0,10,1005.57,30,22.08,918,2564,104,0,9,-65
938,0,78.21994019,15.64082718,38.2,13,2,1,10,1005.56,30,22.09,917,2564,104,0,9,-65
939,0,78.21994019,15.64083862,38.3,13,2,2,9,1005.57,30,22.09,916,2565,104,0,9,-65
940,0,78.21994019,15.64085388,38.3,13,2,3,9,1005.56,30,22.09,915,2564,104,0,9,-64
941,0,78.21994019,15.64086914,38.3,13,2,4,9,1005.51,30,22.09,915,2564,104,0,9,-63
942,0,78.21994019,15.64088058,38.3,13,2,5,9,1005.54,30,22.09,915,2555,104,0,9,-62
943,0,78.21994019,15.64089203,38.3,13,2,6,10,1005.55,30,22.09,917,2572,104,0,9,-58
944,0,78.21994019,15.64089203,38.3,13,2,7,11,1005.54,30,22.1,918,2564,104,0,9,-57
945,0,78.21994019,15.64089203,38.3,13,2,8,11,1005.59,30,22.1,916,2565,104,0,9,-57
946,0,78.21994019,15.64089584,38.3,13,2,9,11,1005.57,30,22.09,916,2563,104,0,9,-58
947,0,78.21994019,15.64089203,38.3,13,2,10,11,1005.55,30,22.09,916,2564,104,0,9,-58
948,0,78.21994019,15.64089584,38.3,13,2,11,11,1005.55,30,22.1,917,2563,104,0,9,-58
949,0,78.21994019,15.64090347,38.2,13,2,12,11,1005.56,30,22.09,917,2563,104,0,9,-58
950,0,78.21994019,15.64091110,38.2,13,2,13,11,1005.55,30,22.09,917,2556,104,0,9,-58
951,0,78.21994019,15.64091492,38.2,13,2,14,11,1005.55,30,22.09,916,2569,104,0,9,-58
952,0,78.21994019,15.64091873,38.2,13,2,15,11,1005.53,30,22.1,915,2563,104,0,9,-59
953,0,78.21994019,15.64092255,38.2,13,2,16,11,1005.55,30,22.1,915,2564,104,0,9,-58
954,0,78.21994019,15.64093399,38.2,13,2,17,11,1005.58,30,22.1,916,2563,104,0,9,-58
955,0,78.21994019,15.64094543,38.1,13,2,18,11,1005.55,30,22.1,915,2564,104,0,9,-58
956,0,78.21994019,15.64094543,38.1,13,2,19,11,1005.54,30,22.1,915,2564,104,0,9,-59
957,0,78.21994019,15.64095306,38.1,13,2,20,11,1005.55,30,22.1,915,2563,104,0,9,-59
958,0,78.21994019,15.64094543,38.1,13,2,21,11,1005.54,30,22.1,915,2562,104,0,9,-58
959,0,78.21990967,15.64094162,38.1,13,2,22,11,1005.54,30,22.1,914,2567,104,0,9,-58
960,0,78.21990967,15.64094162,38.0,13,2,23,11,1005.52,30,22.1,914,2565,104,0,9,-58
961,0,78.21990967,15.64094162,38.0,13,2,24,11,1005.52,30,22.1,913,2565,104,0,9,-58
962,0,78.21990967,15.64093781,37.9,13,2,25,11,1005.53,30,22.1,914,2564,104,0,9,-58
963,0,78.21990967,15.64093018,37.9,13,2,26,11,1005.53,30,22.1,915,2563,104,0,9,-58
964,0,78.21990967,15.64093399,37.8,13,2,27,11,1005.52,30,22.1,914,2563,104,0,9,-58
965,0,78.21990967,15.64093399,37.8,13,2,28,11,1005.52,30,22.1,914,2564,104,0,9,-55
966,0,78.21990967,15.64093781,37.8,13,2,29,11,1005.51,30,22.11,913,2563,104,0,9,-58
967,0,78.21994019,15.64094543,37.7,13,2,30,11,1005.52,30,22.1,915,2553,104,0,9,-56
968,0,78.21994019,15.64095306,37.7,13,2,31,11,1005.53,30,22.1,916,2563,104,0,9,-59
969,0,78.21994019,15.64096069,37.7,13,2,32,11,1005.53,30,22.1,915,2564,104,0,9,-58
970,0,78.21994019,15.64096069,37.7,13,2,33,11,1005.55,30,22.1,916,2564,104,0,9,-58
971,0,78.21994019,15.64096069,37.7,13,2,34,11,1005.53,30,22.1,917,2563,104,0,9,-58
972,0,78.21994019,15.64096451,37.7,13,2,35,11,1005.51,30,22.1,918,2563,104,0,9,-59
973,0,78.21994019,15.64097214,37.8,13,2,36,11,1005.54,30,22.11,917,2563,104,0,9,-59
974,0,78.21994019,15.64097214,37.9,13,2,37,11,1005.51,30,22.11,917,2563,104,0,9,-58
975,0,78.21994019,15.64097595,37.9,13,2,38,11,1005.51,30,22.11,917,2557,104,0,9,-58
976,0,78.21994019,15.64097595,37.9,13,2,39,11,1005.52,30,22.11,917,2565,104,0,9,-58
977,0,78.21994019,15.64096451,37.9,13,2,40,11,1005.52,30,22.11,917,2562,104,0,9,-58
978,0,78.21994019,15.64094925,37.9,13,2,41,11,1005.54,30,22.11,916,2562,104,0,9,-58
979,0,78.21994019,15.64093018,37.9,13,2,42,11,1005.54,30,22.12,915,2562,104,0,9,-58
980,0,78.21994019,15.64091873,37.9,13,2,43,11,1005.53,30,22.12,916,2563,104,0,9,-59
981,0,78.21994019,15.64092255,37.9,13,2,44,11,1005.54,30,22.12,914,2563,104,0,9,-58
982,0,78.21994019,15.64090347,37.9,13,2,45,11,1005.53,30,22.12,914,2562,104,0,9,-58
983,0,78.21994019,15.64089966,37.9,13,2,46,11,1005.54,30,22.11,914,2556,104,0,9,-58
984,0,78.21994019,15.64091110,37.9,13,2,47,11,1005.53,30,22.12,914,2563,104,0,9,-57
985,0,78.21994019,15.64089203,37.9,13,2,48,11,1005.5,30,22.12,913,2564,104,0,9,-57
986,0,78.21994019,15.64088821,37.9,13,2,49,10,1005.53,30,22.12,913,2563,104,0,9,-57
987,0,78.21994019,15.64086914,37.9,13,2,50,10,1005.5,30,22.12,914,2563,104,0,9,-58
988,0,78.21994019,15.64085388,37.9,13,2,51,10,1005.5,30,22.12,913,2563,104,0,9,-57
989,0,78.21994019,15.64082718,37.8,13,2,52,10,1005.52,30,22.12,912,2564,104,0,9,-57
990,0,78.21994019,15.64080429,37.8,13,2,53,10,1005.49,30,22.13,912,2563,104,0,9,-57
991,0,78.21994019,15.64080048,37.8,13,2,54,9,1005.52,30,22.12,913,2567,104,0,9,-57
992,0,78.21994019,15.64078903,37.8,13,2,55,9,1005.54,30,22.12,914,2563,104,0,9,-56
993,0,78.21994019,15.64076233,37.8,13,2,56,9,1005.56,30,22.13,914,2561,104,0,9,-54
994,0,78.21994019,15.64075470,37.8,13,2,57,11,1005.55,30,22.13,916,2562,104,0,9,-56
995,0,78.21994019,15.64072800,37.8,13,2,58,11,1005.55,30,22.12,917,2561,104,0,9,-56
996,0,78.21994019,15.64071655,37.8,13,2,59,11,1005.55,30,22.12,918,2562,104,0,9,-56
997,0,78.21994019,15.64070511,37.8,13,3,0,11,1005.53,30,22.13,920,2563,104,0,9,-57
998,0,78.21994019,15.64069748,37.7,13,3,1,11,1005.55,30,22.13,920,2562,104,0,9,-57
999,0,78.21994019,15.64069748,37.7,13,3,2,12,1005.54,30,22.12,922,2563,104,0,9,-57
1000,0,78.21994019,15.64068222,37.7,13,3,3,12,1005.54,30,22.13,921,2555,104,0,9,-58
1001,0,78.21994019,15.64066315,37.7,13,3,4,12,1005.55,30,22.13,920,2563,104,0,9,-58
1002,0,78.21994019,15.64065552,37.7,13,3,5,12,1005.52,30,22.12,920,2562,104,0,9,-58
1003,0,78.21997070,15.64064407,37.6,13,3,6,12,1005.53,30,22.13,920,2563,104,0,9,-58
1004,0,78.21997070,15.64060593,37.6,13,3,7,12,1005.54,30,22.13,921,2562,104,0,9,-58
1005,0,78.21997070,15.64060974,37.6,13,3,8,12,1005.54,30,22.13,919,2563,104,0,9,-59
1006,0,78.21997070,15.64058304,37.6,13,3,9,12,1005.5,30,22.13,920,2562,104,0,9,-58
1007,0,78.21997070,15.64056015,37.6,13,3,10,12,1005.53,30,22.13,920,2570,104,0,9,-58
1008,0,78.21997070,15.64052582,37.6,13,3,11,12,1005.51,30,22.13,922,2563,104,0,9,-58
1009,0,78.21997070,15.64050293,37.5,13,3,12,12,1005.52,30,22.13,923,2563,104,0,9,-58
1010,0,78.21997070,15.64049911,37.5,13,3,13,12,1005.51,30,22.13,922,2562,104,0,9,-58
1011,0,78.21997070,15.64045715,37.5,13,3,14,12,1005.53,30,22.14,922,2563,104,0,9,-57
1012,0,78.21997070,15.64044189,37.5,13,3,15,12,1005.51,30,22.13,920,2562,104,0,9,-58
1013,0,78.21997070,15.64044189,37.5,13,3,16,12,1005.52,30,22.13,920,2562,104,0,9,-58
1014,0,78.21997070,15.64040375,37.4,13,3,17,12,1005.51,30,22.13,919,2562,104,0,9,-58
1015,0,78.21997070,15.64037704,37.4,13,3,18,12,1005.53,30,22.13,919,2563,104,0,9,-58
1016,0,78.21994019,15.64036179,37.4,13,3,19,12,1005.52,30,22.14,919,2563,104,0,9,-58
1017,0,78.21994019,15.64031982,37.3,13,3,20,12,1005.52,30,22.13,919,2562,104,0,9,-58
1018,0,78.21994019,15.64030838,37.3,13,3,21,12,1005.5,30,22.14,918,2563,104,0,9,-58
1019,0,78.21994019,15.64028931,37.2,13,3,22,12,1005.52,30,22.14,918,2562,104,0,9,-58
1020,0,78.21994019,15.64025879,37.2,13,3,23,12,1005.49,30,22.14,918,2562,104,0,9,-58
1021,0,78.21994019,15.64023209,37.1,13,3,24,12,1005.52,30,22.14,918,2562,104,0,9,-58
1022,0,78.21994019,15.64022446,37.1,13,3,25,12,1005.52,30,22.14,918,2562,104,0,9,-58
1023,0,78.21994019,15.64023209,37.1,13,3,26,12,1005.5,30,22.14,917,2556,104,0,9,-58
1024,0,78.21994019,15.64024353,37.1,13,3,27,12,1005.5,30,22.13,917,2560,104,0,9,-58
1025,0,78.21994019,15.64023209,37.0,13,3,28,12,1005.52,30,22.14,917,2563,104,0,9,-59
1026,0,78.21994019,15.64024353,37.1,13,3,29,11,1005.53,30,22.14,916,2562,104,0,9,-59
1027,0,78.21994019,15.64025116,37.1,13,3,30,11,1005.52,30,22.14,916,2561,104,0,9,-59
1028,0,78.21994019,15.64025879,37.0,13,3,31,11,1005.53,30,22.14,915,2561,104,0,9,-59
1029,0,78.21994019,15.64027023,37.0,13,3,32,12,1005.5,30,22.14,915,2561,104,0,9,-58
1030,0,78.21994019,15.64027786,37.0,13,3,33,12,1005.51,30,22.14,915,2561,104,0,9,-59
1031,0,78.21994019,15.64029694,37.0,13,3,34,12,1005.51,30,22.14,914,2563,104,0,9,-58
1032,0,78.21994019,15.64030838,36.9,13,3,35,12,1005.51,30,22.14,913,2562,104,0,9,-59
1033,0,78.21994019,15.64032745,36.9,13,3,36,12,1005.5,30,22.14,914,2562,104,0,9,-59
1034,0,78.21994019,15.64033127,36.9,13,3,37,11,1005.5,30,22.14,913,2564,104,0,9,-58
1035,0,78.21994019,15.64033127,36.9,13,3,38,11,1005.49,30,22.14,914,2562,104,0,9,-58
1036,0,78.21994019,15.64034653,36.9,13,3,39,11,1005.5,30,22.14,914,2562,104,0,9,-56
1037,0,78.21994019,15.64036560,36.9,13,3,40,11,1005.51,30,22.14,913,2562,104,0,9,-56
1038,0,78.21994019,15.64037704,36.9,13,3,41,11,1005.51,30,22.14,914,2563,104,0,9,-56
1039,0,78.21994019,15.64038086,36.8,13,3,42,11,1005.49,30,22.14,914,2561,104,0,9,-57
1040,0,78.21994019,15.64038467,36.8,13,3,43,11,1005.51,30,22.14,914,2561,104,0,9,-57
1041,0,78.21994019,15.64039612,36.8,13,3,44,11,1005.51,30,22.14,915,2562,104,0,9,-58
1042,0,78.21994019,15.64039993,36.8,13,3,45,11,1005.49,30,22.14,915,2561,104,0,9,-58
1043,0,78.21994019,15.64040375,36.8,13,3,46,11,1005.48,30,22.14,915,2561,104,0,9,-58
1044,0,78.21994019,15.64041519,36.8,13,3,47,11,1005.48,30,22.14,915,2561,104,0,9,-58
1045,0,78.21994019,15.64043045,36.8,13,3,48,12,1005.47,30,22.14,915,2561,104,0,9,-59
1046,0,78.21994019,15.64044952,36.8,13,3,49,12,1005.51,30,22.14,915,2560,104,0,9,-57
1047,0,78.21994019,15.64046097,36.8,13,3,50,12,1005.52,30,22.14,916,2562,104,0,9,-57
1048,0,78.21994019,15.64048767,36.7,13,3,51,11,1005.52,30,22.14,918,2562,104,0,9,-57
1049,0,78.21994019,15.64051056,36.7,13,3,52,11,1005.51,30,22.14,917,2562,104,0,9,-58
1050,0,78.21994019,15.64053726,36.7,13,3,53,11,1005.48,30,22.14,918,2561,104,0,9,-57
1051,0,78.21994019,15.64056778,36.7,13,3,54,11,1005.48,30,22.14,919,2562,104,0,9,-57
1052,0,78.21994019,15.64058685,36.6,13,3,55,11,1005.5,30,22.14,918,2561,104,0,9,-57
1053,0,78.21994019,15.64060593,36.6,13,3,56,11,1005.48,30,22.15,917,2551,104,0,9,-57
1054,0,78.21994019,15.64062119,36.5,13,3,57,11,1005.49,30,22.15,917,2561,104,0,9,-57
1055,0,78.21994019,15.64064026,36.7,13,3,58,11,1005.49,30,22.15,916,2561,104,0,9,-57
1056,0,78.21994019,15.64063644,36.8,13,3,59,11,1005.47,30,22.14,916,2561,104,0,9,-58
1057,0,78.21994019,15.64065170,36.8,13,4,0,10,1005.5,30,22.14,916,2561,104,0,9,-58
1058,0,78.21994019,15.64065552,36.8,13,4,1,11,1005.49,30,22.14,915,2560,104,0,9,-57
1059,0,78.21994019,15.64066696,36.8,13,4,2,11,1005.5,30,22.14,916,2560,104,0,9,-58
1060,0,78.21994019,15.64068604,36.8,13,4,3,11,1005.5,30,22.14,916,2560,104,0,9,-58
1061,0,78.21994019,15.64068222,36.8,13,4,4,11,1005.51,30,22.14,917,2560,104,0,9,-57
1062,0,78.21994019,15.64067841,36.9,13,4,5,11,1005.51,30,22.15,917,2549,104,0,9,-57
1063,0,78.21994019,15.64067841,36.9,13,4,6,11,1005.52,30,22.15,918,2562,104,0,9,-57
1064,0,78.21994019,15.64067459,37.0,13,4,7,11,1005.47,30,22.15,918,2560,104,0,9,-57
1065,0,78.21994019,15.64067459,36.8,13,4,8,11,1005.49,30,22.15,919,2562,104,0,9,-57
1066,0,78.21994019,15.64067459,36.8,13,4,9,11,1005.51,30,22.15,918,2561,104,0,9,-57
1067,0,78.21994019,15.64066696,36.8,13,4,10,11,1005.51,30,22.15,919,2561,104,0,9,-57
1068,0,78.21994019,15.64066315,36.7,13,4,11,11,1005.52,30,22.15,919,2561,104,0,9,-57
1069,0,78.21994019,15.64065552,36.7,13,4,12,11,1005.5,30,22.15,918,2561,104,0,9,-57
1070,0,78.21994019,15.64065170,36.7,13,4,13,11,1005.48,30,22.15,917,2560,104,0,9,-57
1071,0,78.21994019,15.64065170,36.7,13,4,14,11,1005.5,30,22.15,917,2561,104,0,9,-57
1072,0,78.21994019,15.64064789,36.7,13,4,15,10,1005.5,30,22.15,917,2560,104,0,9,-57
1073,0,78.21994019,15.64064407,36.7,13,4,16,11,1005.47,30,22.15,917,2559,104,0,9,-57
1074,0,78.21994019,15.64063644,36.7,13,4,17,11,1005.5,30,22.15,916,2560,104,0,9,-58
1075,0,78.21994019,15.64064407,36.8,13,4,18,11,1005.5,30,22.16,916,2560,104,0,9,-58
1076,0,78.21994019,15.64065170,36.9,13,4,19,10,1005.49,30,22.15,915,2560,104,0,9,-59
1077,0,78.21994019,15.64065552,37.0,13,4,20,11,1005.46,30,22.15,914,2560,104,0,9,-58
1078,0,78.21994019,15.64065552,37.0,13,4,21,11,1005.5,30,22.16,914,2561,104,0,9,-57
1079,0,78.21994019,15.64064407,37.0,13,4,22,11,1005.5,30,22.16,914,2561,104,0,9,-58
1080,0,78.21994019,15.64064407,37.0,13,4,23,11,1005.52,30,22.16,914,2562,104,0,9,-57
1081,0,78.21994019,15.64064789,37.0,13,4,24,11,1005.48,30,22.16,916,2561,104,0,9,-57
1082,0,78.21994019,15.64065170,37.1,13,4,25,11,1005.51,30,22.16,916,2561,104,0,9,-57
1083,0,78.21994019,15.64065552,37.1,13,4,26,11,1005.53,30,22.16,917,2561,104,0,9,-57
1084,0,78.21994019,15.64065552,37.1,13,4,27,11,1005.51,30,22.16,916,2561,104,0,9,-57
1085,0,78.21994019,15.64066696,37.1,13,4,28,11,1005.51,30,22.16,918,2560,104,0,9,-58
1086,0,78.21994019,15.64066696,37.1,13,4,29,11,1005.48,30,22.16,918,2563,104,0,9,-57
1087,0,78.21994019,15.64065933,37.0,13,4,30,11,1005.51,30,22.16,920,2561,104,0,9,-57
1088,0,78.21994019,15.64066696,37.0,13,4,31,11,1005.51,30,22.16,920,2561,104,0,9,-57
1089,0,78.21994019,15.64067459,37.0,13,4,32,11,1005.5,30,22.16,922,2559,104,0,9,-56
1090,0,78.21994019,15.64067841,37.0,13,4,33,11,1005.47,30,22.16,923,2560,104,0,9,-58
1091,0,78.21994019,15.64067841,37.0,13,4,34,11,1005.48,30,22.16,923,2560,104,0,9,-57
1092,0,78.21994019,15.64067459,37.0,13,4,35,11,1005.49,30,22.16,923,2560,104,0,9,-57
1093,0,78.21994019,15.64068222,37.0,13,4,36,11,1005.49,30,22.17,925,2559,104,0,9,-57
1094,0,78.21994019,15.64069366,37.1,13,4,37,10,1005.49,30,22.16,925,2559,104,0,9,-58
1095,0,78.21994019,15.64069748,37.1,13,4,38,10,1005.5,30,22.17,926,2561,104,0,9,-57
1096,0,78.21994019,15.64072037,37.1,13,4,39,10,1005.51,30,22.17,927,2560,104,0,9,-57
1097,0,78.21997070,15.64073944,37.1,13,4,40,10,1005.49,30,22.17,926,2561,104,0,9,-57
1098,0,78.21997070,15.64075470,37.1,13,4,41,10,1005.5,30,22.17,925,2562,104,0,9,-57
1099,0,78.21997070,15.64075851,37.1,13,4,42,11,1005.51,30,22.17,924,2561,104,0,9,-58
1100,0,78.21997070,15.64076614,37.1,13,4,43,11,1005.5,30,22.17,924,2561,104,0,9,-58
1101,0,78.21997070,15.64076614,37.1,13,4,44,11,1005.48,30,22.17,924,2557,104,0,9,-57
1102,0,78.21997070,15.64076614,37.1,13,4,45,12,1005.5,30,22.17,925,2560,104,0,9,-58
1103,0,78.21997070,15.64076996,37.2,13,4,46,12,1005.5,30,22.17,925,2560,104,0,9,-58
1104,0,78.21997070,15.64076614,37.2,13,4,47,12,1005.5,30,22.17,924,2560,104,0,9,-57
1105,0,78.21997070,15.64076996,37.2,13,4,48,12,1005.49,30,22.17,925,2560,104,0,9,-57
1106,0,78.21997070,15.64076614,37.2,13,4,49,12,1005.5,30,22.18,925,2559,104,0,9,-57
1107,0,78.21997070,15.64076233,37.2,13,4,50,12,1005.49,30,22.17,924,2560,104,0,9,-58
1108,0,78.21994019,15.64075089,37.3,13,4,51,12,1005.48,30,22.17,923,2560,104,0,9,-57
1109,0,78.21994019,15.64075089,37.3,13,4,52,12,1005.48,30,22.17,923,2560,104,0,9,-58
1110,0,78.21994019,15.64074326,37.3,13,4,53,12,1005.5,30,22.17,923,2548,104,0,9,-58
1111,0,78.21994019,15.64073563,37.3,13,4,54,12,1005.49,30,22.17,923,2560,104,0,9,-58
1112,0,78.21994019,15.64072418,37.3,13,4,55,12,1005.5,30,22.17,923,2561,104,0,9,-58
1113,0,78.21994019,15.64070511,37.3,13,4,56,12,1005.49,30,22.17,925,2561,104,0,9,-58
1114,0,78.21994019,15.64070892,37.4,13,4,57,12,1005.5,30,22.17,926,2560,104,0,9,-59
1115,0,78.21994019,15.64070892,37.4,13,4,58,12,1005.5,30,22.17,927,2561,104,0,9,-58
1116,0,78.21994019,15.64071655,37.4,13,4,59,12,1005.47,30,22.17,926,2559,104,0,9,-58
1117,0,78.21994019,15.64072418,37.4,13,5,0,12,1005.49,30,22.17,925,2560,104,0,9,-57
1118,0,78.21990967,15.64070892,37.4,13,5,1,12,1005.48,30,22.17,925,2560,104,0,9,-58
1119,0,78.21990967,15.64070511,37.4,13,5,2,11,1005.47,30,22.17,925,2562,104,0,9,-57
1120,0,78.21990967,15.64071655,37.5,13,5,3,11,1005.47,30,22.17,926,2560,104,0,9,-57
1121,0,78.21990967,15.64072800,37.4,13,5,4,11,1005.48,30,22.18,925,2559,104,0,9,-57
1122,0,78.21990967,15.64072418,37.5,13,5,5,11,1005.48,30,22.18,924,2558,104,0,9,-57
1123,0,78.21990967,15.64073181,37.5,13,5,6,11,1005.47,30,22.18,923,2559,104,0,9,-57
1124,0,78.21990967,15.64073944,37.4,13,5,7,11,1005.47,30,22.18,923,2560,104,0,9,-58
1125,0,78.21990967,15.64075089,37.4,13,5,8,11,1005.5,30,22.18,923,2560,104,0,9,-57
1126,0,78.21990967,15.64076233,37.4,13,5,9,11,1005.48,30,22.18,923,2558,104,0,9,-57
1127,0,78.21990967,15.64075851,37.4,13,5,10,11,1005.52,30,22.18,923,2560,104,0,9,-58
1128,0,78.21990967,15.64074707,37.4,13,5,11,11,1005.51,30,22.18,923,2560,104,0,9,-57
1129,0,78.21990967,15.64075851,37.4,13,5,12,11,1005.5,30,22.18,922,2559,104,0,9,-57
1130,0,78.21990967,15.64076233,37.3,13,5,13,11,1005.49,30,22.19,920,2560,104,0,9,-57
1131,0,78.21990967,15.64076233,37.3,13,5,14,11,1005.49,30,22.19,921,2560,104,0,9,-57
1132,0,78.21990967,15.64077377,37.3,13,5,15,11,1005.5,30,22.19,921,2560,104,0,9,-58
1133,0,78.21990967,15.64078140,37.3,13,5,16,11,1005.48,30,22.19,920,2561,104,0,9,-57
1134,0,78.21990967,15.64079285,37.3,13,5,17,11,1005.51,30,22.19,919,2560,104,0,9,-57
1135,0,78.21990967,15.64078903,37.2,13,5,18,11,1005.49,30,22.19,918,2549,104,0,9,-57
1136,0,78.21990967,15.64076996,37.2,13,5,19,11,1005.49,30,22.19,917,2560,104,0,9,-57
1137,0,78.21994019,15.64073181,37.2,13,5,20,11,1005.47,30,22.19,917,2559,104,0,9,-58
1138,0,78.21994019,15.64070892,37.2,13,5,21,11,1005.45,30,22.19,917,2559,104,0,9,-56
1139,0,78.21994019,15.64069366,37.2,13,5,22,11,1005.5,30,22.19,917,2560,104,0,9,-57
1140,0,78.21994019,15.64069366,37.2,13,5,23,11,1005.5,30,22.2,917,2559,104,0,9,-58
1141,0,78.21994019,15.64067841,37.3,13,5,24,11,1005.48,30,22.19,917,2558,104,0,9,-57
1142,0,78.21994019,15.64066696,37.3,13,5,25,11,1005.51,30,22.2,917,2559,104,0,9,-57
1143,0,78.21994019,15.64065933,37.3,13,5,26,11,1005.51,30,22.19,916,2551,104,0,9,-57
1144,0,78.21994019,15.64068222,37.3,13,5,27,11,1005.54,30,22.2,915,2560,104,0,9,-57
1145,0,78.21994019,15.64067459,37.2,13,5,28,11,1005.52,30,22.19,914,2560,104,0,9,-58
1146,0,78.21994019,15.64066315,37.2,13,5,29,11,1005.53,30,22.19,914,2560,104,0,9,-57
1147,0,78.21994019,15.64065170,37.2,13,5,30,11,1005.53,30,22.2,914,2560,104,0,9,-57
1148,0,78.21994019,15.64063644,37.2,13,5,31,11,1005.53,30,22.19,913,2560,104,0,9,-58
1149,0,78.21994019,15.64063263,37.1,13,5,32,11,1005.55,30,22.2,912,2560,104,0,9,-57
1150,0,78.21994019,15.64062500,37.1,13,5,33,10,1005.5,30,22.2,912,2564,104,0,9,-57
1151,0,78.21994019,15.64059830,37.1,13,5,34,10,1005.52,30,22.2,912,2557,104,0,9,-57
1152,0,78.21994019,15.64057159,37.0,13,5,35,10,1005.52,30,22.2,911,2559,104,0,9,-57
1153,0,78.21994019,15.64051437,37.0,13,5,36,10,1005.53,30,22.2,911,2558,104,0,9,-58
1154,0,78.21994019,15.64046478,36.9,13,5,37,10,1005.5,30,22.2,910,2559,104,0,9,-58
1155,0,78.21994019,15.64041138,36.9,13,5,38,10,1005.49,30,22.2,911,2559,104,0,9,-57
1156,0,78.21994019,15.64038086,36.9,13,5,39,10,1005.46,30,22.2,910,2558,104,0,9,-58
1157,0,78.21994019,15.64036179,36.9,13,5,40,10,1005.49,30,22.2,910,2558,104,0,9,-58
1158,0,78.21997070,15.64035416,36.9,13,5,41,10,1005.48,30,22.21,910,2563,104,0,9,-58
1159,0,78.21997070,15.64034271,36.9,13,5,42,10,1005.45,30,22.2,911,2559,104,0,9,-57
1160,0,78.21997070,15.64033508,37.0,13,5,43,10,1005.48,30,22.21,913,2559,104,0,9,-58
1161,0,78.21997070,15.64033127,37.0,13,5,44,10,1005.5,30,22.21,914,2560,104,0,9,-58
1162,0,78.21997070,15.64032745,37.0,13,5,45,10,1005.49,30,22.21,914,2560,104,0,9,-58
1163,0,78.21997070,15.64034653,37.0,13,5,46,10,1005.48,30,22.21,915,2559,104,0,9,-57
