packetnr,hk,lat,lon,alt,hh,mm,ss,nsat,p,H,T,ntc,bat,yaw,pitch,roll,rssi
131,1,0.00000000,0.00000000,0.0,0,0,0,0,1001.5,35,22.84,2146,2509,-15,0,7,-57
132,1,0.00000000,0.00000000,0.0,0,0,0,0,1001.51,35,22.8,2159,2510,-15,0,7,-56
133,1,0.00000000,0.00000000,0.0,0,0,0,0,1001.5,35,22.76,2172,2509,-15,0,7,-56
134,1,0.00000000,0.00000000,0.0,0,0,0,0,1001.49,35,22.71,2185,2501,-15,0,7,-56
135,1,0.00000000,0.00000000,0.0,0,0,0,0,1001.48,35,22.67,2196,2510,-15,0,7,-56
136,1,0.00000000,0.00000000,0.0,0,0,0,0,1001.48,34,22.62,2207,2508,-15,0,7,-55
137,1,0.00000000,0.00000000,0.0,0,0,0,0,1001.48,34,22.57,2218,2508,-15,0,7,-55
138,1,0.00000000,0.00000000,0.0,0,0,0,0,1001.51,34,22.52,2228,2509,-15,0,7,-55
139,1,0.00000000,0.00000000,0.0,0,0,0,0,1001.46,34,22.47,2239,2508,-15,0,7,-59
140,1,0.00000000,0.00000000,0.0,0,0,0,0,1001.45,34,22.42,2248,2508,-15,0,7,-56
141,1,0.00000000,0.00000000,0.0,0,0,0,0,1001.47,34,22.37,2257,2509,-15,0,7,-56
142,1,0.00000000,0.00000000,0.0,0,0,0,0,1001.47,34,22.33,2266,2510,-15,0,7,-55
143,1,0.00000000,0.00000000,0.0,0,0,0,0,1001.45,34,22.28,2274,2510,-15,0,7,-55
144,1,0.00000000,0.00000000,0.0,0,0,0,0,1001.46,34,22.23,2281,2508,-15,0,7,-56
145,1,0.00000000,0.00000000,0.0,0,0,0,0,1001.47,34,22.18,2288,2509,-15,0,7,-55
146,1,0.00000000,0.00000000,0.0,0,0,0,0,1001.47,33,22.13,2294,2509,-15,0,7,-55
147,1,0.00000000,0.00000000,0.0,0,0,0,0,1001.47,33,22.08,2299,2508,-15,0,7,-55
148,1,0.00000000,0.00000000,0.0,0,0,0,0,1001.43,33,22.03,2305,2508,-15,0,7,-55
149,1,0.00000000,0.00000000,0.0,0,0,0,0,1001.47,33,21.99,2312,2509,-15,0,7,-55
150,1,0.00000000,0.00000000,0.0,0,0,0,0,1001.46,33,21.92,2319,2501,-15,0,7,-55
151,1,0.00000000,0.00000000,0.0,0,0,0,0,1001.46,33,21.88,2323,2510,-15,0,7,-55
152,1,0.00000000,0.00000000,0.0,0,0,0,0,1001.47,33,21.83,2325,2508,-15,0,7,-55
153,1,0.00000000,0.00000000,0.0,0,0,0,0,1001.44,33,21.78,2327,2509,-15,0,7,-55
154,1,0.00000000,0.00000000,0.0,0,0,0,0,1001.45,33,21.72,2331,2507,-15,0,7,-56
155,1,0.00000000,0.00000000,0.0,0,0,0,0,1001.44,33,21.67,2334,2508,-15,0,7,-54
156,1,0.00000000,0.00000000,0.0,0,0,0,0,1001.43,33,21.61,2340,2509,-15,0,7,-55
157,1,0.00000000,0.00000000,0.0,0,0,0,0,1001.46,33,21.57,2344,2508,-15,0,7,-55
158,1,0.00000000,0.00000000,0.0,0,0,0,0,1001.45,33,21.52,2348,2509,-15,0,7,-54
159,1,0.00000000,0.00000000,0.0,0,0,0,0,1001.44,33,21.46,2352,2500,-15,0,7,-54
160,1,0.00000000,0.00000000,0.0,0,0,0,0,1001.46,32,21.41,2355,2508,-15,0,7,-55
161,1,0.00000000,0.00000000,0.0,0,0,0,0,1001.47,32,21.36,2359,2509,-15,0,7,-57
162,1,0.00000000,0.00000000,0.0,0,0,0,0,1001.47,32,21.31,2362,2509,-15,0,7,-57
163,1,0.00000000,0.00000000,0.0,0,0,0,0,1001.47,32,21.25,2364,2508,-15,0,7,-57
164,1,0.00000000,0.00000000,0.0,0,0,0,0,1001.47,32,21.2,2368,2508,-15,0,7,-57
165,1,0.00000000,0.00000000,0.0,0,0,0,0,1001.49,32,21.14,2372,2510,-15,0,7,-57
166,1,0.00000000,0.00000000,0.0,0,0,0,0,1001.51,32,21.08,2376,2509,-15,0,7,-57
167,1,0.00000000,0.00000000,0.0,0,0,0,0,1001.52,32,21.03,2379,2503,-15,0,7,-56
168,1,0.00000000,0.00000000,0.0,0,0,0,0,1001.53,32,20.98,2382,2510,-15,0,7,-56
169,1,0.00000000,0.00000000,0.0,0,0,0,0,1001.52,32,20.93,2386,2508,-15,0,7,-57
170,1,0.00000000,0.00000000,0.0,0,0,0,0,1001.53,32,20.88,2388,2508,-15,0,7,-56
171,1,0.00000000,0.00000000,0.0,0,0,0,0,1001.55,32,20.83,2391,2508,-15,0,7,-56
172,1,0.00000000,0.00000000,0.0,0,0,0,0,1001.55,32,20.78,2393,2508,-15,0,7,-55
173,1,0.00000000,0.00000000,0.0,0,0,0,0,1001.55,32,20.72,2396,2508,-15,0,7,-55
174,1,0.00000000,0.00000000,0.0,0,0,0,0,1001.49,32,20.67,2399,2516,-15,0,7,-55
175,1,0.00000000,0.00000000,0.0,0,0,0,0,1001.53,32,20.61,2401,2512,-15,0,7,-55
176,1,0.00000000,0.00000000,0.0,0,0,0,0,1001.55,32,20.56,2403,2508,-15,0,7,-55
177,1,0.00000000,0.00000000,0.0,0,0,0,0,1001.53,32,20.51,2403,2509,-15,0,7,-55
178,1,0.00000000,0.00000000,0.0,0,0,0,0,1001.5,32,20.46,2406,2509,-15,0,7,-55
179,1,0.00000000,0.00000000,0.0,0,0,0,0,1001.49,32,20.4,2407,2509,-15,0,7,-55
180,1,0.00000000,0.00000000,0.0,0,0,0,0,1001.48,32,20.36,2408,2509,-15,0,7,-55
181,1,0.00000000,0.00000000,0.0,0,0,0,0,1001.46,32,20.3,2409,2509,-15,0,7,-55
182,1,0.00000000,0.00000000,0.0,0,0,0,0,1001.47,32,20.25,2411,2509,-15,0,7,-55
183,1,0.00000000,0.00000000,0.0,0,0,0,0,1001.46,32,20.2,2412,2510,-15,0,7,-55
184,1,0.00000000,0.00000000,0.0,0,0,0,0,1001.46,32,20.14,2412,2511,-15,0,7,-55
185,1,0.00000000,0.00000000,0.0,0,0,0,0,1001.47,32,20.09,2414,2511,-15,0,7,-55
186,1,0.00000000,0.00000000,0.0,0,0,0,0,1001.46,32,20.04,2415,2507,-15,0,7,-55
187,1,0.00000000,0.00000000,0.0,0,0,0,0,1001.46,32,19.98,2415,2508,-15,0,7,-54
188,1,0.00000000,0.00000000,0.0,0,0,0,0,1001.46,32,19.93,2415,2507,-15,0,7,-55
189,1,0.00000000,0.00000000,0.0,0,0,0,0,1001.46,32,19.89,2416,2507,-15,0,7,-55
190,1,0.00000000,0.00000000,0.0,0,0,0,0,1001.47,32,19.83,2416,2507,-15,0,7,-55
191,1,0.00000000,0.00000000,0.0,0,0,0,0,1001.45,32,19.77,2417,2506,-15,0,7,-55
192,1,0.00000000,0.00000000,0.0,0,0,0,0,1001.47,32,19.72,2417,2507,-15,0,7,-55
193,1,0.00000000,0.00000000,0.0,0,0,0,0,1001.43,32,19.67,2417,2519,-15,0,7,-55
194,1,0.00000000,0.00000000,0.0,0,0,0,0,1001.42,31,19.62,2417,2508,-15,0,7,-55
195,1,0.00000000,0.00000000,0.0,0,0,0,0,1001.46,31,19.57,2419,2509,-15,0,7,-55
196,1,0.00000000,0.00000000,0.0,0,0,0,0,1001.43,31,19.52,2420,2509,-15,0,7,-55
197,1,0.00000000,0.00000000,0.0,0,0,0,0,1001.48,31,19.46,2420,2508,-15,0,7,-55
198,1,0.00000000,0.00000000,0.0,0,0,0,0,1001.49,31,19.42,2422,2508,-15,0,7,-55
199,1,0.00000000,0.00000000,0.0,0,0,0,0,1001.48,31,19.37,2423,2509,-15,0,7,-57
200,1,0.00000000,0.00000000,0.0,0,0,0,0,1001.49,31,19.32,2425,2509,-15,0,7,-56
201,1,0.00000000,0.00000000,0.0,0,0,0,0,1001.53,31,19.27,2425,2501,-15,0,7,-57
202,1,0.00000000,0.00000000,0.0,0,0,0,0,1001.5,31,19.22,2425,2508,-15,0,7,-57
203,1,0.00000000,0.00000000,0.0,0,0,0,0,1001.49,31,19.16,2427,2507,-15,0,7,-57
204,1,0.00000000,0.00000000,0.0,0,0,0,0,1001.44,31,19.11,2426,2507,-15,0,7,-57
205,1,0.00000000,0.00000000,0.0,0,0,0,0,1001.48,31,19.06,2428,2508,-15,0,7,-56
206,1,0.00000000,0.00000000,0.0,0,0,0,0,1001.49,31,19.02,2428,2507,-15,0,7,-57
207,1,0.00000000,0.00000000,0.0,0,0,0,0,1001.49,31,18.97,2429,2507,-15,0,7,-56
208,1,0.00000000,0.00000000,0.0,0,0,0,0,1001.48,31,18.91,2430,2507,-15,0,7,-57
209,1,0.00000000,0.00000000,0.0,0,0,0,0,1001.51,31,18.87,2432,2513,-15,0,7,-57
210,1,0.00000000,0.00000000,0.0,0,0,0,0,1001.49,31,18.82,2431,2508,-15,0,7,-54
211,1,0.00000000,0.00000000,0.0,0,0,0,0,1001.51,31,18.76,2431,2508,-15,0,7,-54
212,1,0.00000000,0.00000000,0.0,0,0,0,0,1001.48,31,18.71,2430,2507,-15,0,7,-54
213,1,0.00000000,0.00000000,0.0,0,0,0,0,1001.5,31,18.67,2432,2509,-15,0,7,-54
214,1,0.00000000,0.00000000,0.0,0,0,0,0,1001.5,31,18.62,2431,2509,-15,0,7,-54
216,1,0.00000000,0.00000000,0.0,0,0,0,0,1001.49,31,18.52,2432,2509,-15,0,7,-54
217,1,0.00000000,0.00000000,0.0,0,0,0,0,1001.47,31,18.47,2433,2509,-15,0,7,-54
218,1,0.00000000,0.00000000,0.0,0,0,0,0,1001.5,31,18.42,2433,2507,-15,0,7,-54
219,1,0.00000000,0.00000000,0.0,0,0,0,0,1001.47,31,18.37,2434,2507,-15,0,7,-54
220,1,0.00000000,0.00000000,0.0,0,0,0,0,1001.49,31,18.32,2434,2506,-15,0,7,-54
221,1,0.00000000,0.00000000,0.0,0,0,0,0,1001.48,31,18.28,2434,2507,-15,0,7,-54
222,1,0.00000000,0.00000000,0.0,0,0,0,0,1001.5,31,18.23,2435,2506,-15,0,7,-54
223,1,0.00000000,0.00000000,0.0,0,0,0,0,1001.49,31,18.18,2435,2507,-15,0,7,-54
224,1,0.00000000,0.00000000,0.0,0,0,0,0,1001.47,31,18.13,2435,2507,-15,0,7,-54
225,1,0.00000000,0.00000000,0.0,0,0,0,0,1001.45,31,18.08,2436,2509,-15,0,7,-54
226,1,0.00000000,0.00000000,0.0,0,0,0,0,1001.46,31,18.04,2437,2504,-15,0,7,-54
227,1,0.00000000,0.00000000,0.0,0,0,0,0,1001.44,31,17.99,2437,2507,-15,0,7,-55
228,1,0.00000000,0.00000000,0.0,0,0,0,0,1001.46,31,17.94,2439,2508,-15,0,7,-56
229,1,0.00000000,0.00000000,0.0,0,0,0,0,1001.46,31,17.9,2440,2509,-15,0,7,-56
230,1,0.00000000,0.00000000,0.0,0,0,0,0,1001.46,31,17.85,2439,2508,-15,0,7,-55
231,1,0.00000000,0.00000000,0.0,0,0,0,0,1001.44,31,17.8,2440,2508,-15,0,7,-55
232,1,0.00000000,0.00000000,0.0,0,0,0,0,1001.47,31,17.76,2440,2508,-15,0,7,-55
233,1,0.00000000,0.00000000,0.0,0,0,0,0,1001.48,31,17.71,2440,2501,-15,0,7,-55
234,1,0.00000000,0.00000000,0.0,0,0,0,0,1001.42,31,17.66,2441,2507,-15,0,7,-55
235,1,0.00000000,0.00000000,0.0,0,0,0,0,1001.5,31,17.62,2441,2507,-15,0,7,-55
236,1,0.00000000,0.00000000,0.0,0,0,0,0,1001.48,31,17.58,2442,2506,-15,0,7,-55
237,1,0.00000000,0.00000000,0.0,0,0,0,0,1001.47,31,17.52,2441,2507,-15,0,7,-55
238,1,0.00000000,0.00000000,0.0,0,0,0,0,1001.49,31,17.48,2441,2507,-15,0,7,-56
239,1,0.00000000,0.00000000,0.0,0,0,0,0,1001.49,31,17.44,2442,2507,-15,0,7,-55
240,1,0.00000000,0.00000000,0.0,0,0,0,0,1001.48,31,17.38,2443,2507,-15,0,7,-56
241,1,0.00000000,0.00000000,0.0,0,0,0,0,1001.52,31,17.34,2442,2506,-15,0,7,-55
242,1,0.00000000,0.00000000,0.0,0,0,0,0,1001.5,31,17.3,2442,2507,-15,0,7,-54
243,1,0.00000000,0.00000000,0.0,0,0,0,0,1001.45,31,17.25,2444,2508,-15,0,7,-55
244,1,0.00000000,0.00000000,0.0,0,0,0,0,1001.46,31,17.21,2444,2508,-15,0,7,-55
245,1,0.00000000,0.00000000,0.0,0,0,0,0,1001.46,31,17.15,2445,2508,-15,0,7,-55
246,1,0.00000000,0.00000000,0.0,0,0,0,0,1001.47,31,17.11,2444,2507,-15,0,7,-55
247,1,0.00000000,0.00000000,0.0,0,0,0,0,1001.49,31,17.07,2445,2508,-15,0,7,-55
248,1,0.00000000,0.00000000,0.0,0,0,0,0,1001.48,31,17.03,2445,2507,-15,0,7,-55
249,1,0.00000000,0.00000000,0.0,0,0,0,0,1001.5,31,16.99,2446,2507,-15,0,7,-55
250,1,0.00000000,0.00000000,0.0,0,0,0,0,1001.47,31,16.94,2445,2513,-15,0,7,-55
251,1,0.00000000,0.00000000,0.0,0,0,0,0,1001.46,31,16.9,2446,2506,-15,0,7,-55
252,1,0.00000000,0.00000000,0.0,0,0,0,0,1001.49,30,16.85,2446,2506,-15,0,7,-56
253,1,0.00000000,0.00000000,0.0,0,0,0,0,1001.47,30,16.81,2447,2505,-15,0,7,-56
254,1,0.00000000,0.00000000,0.0,0,0,0,0,1001.49,30,16.77,2447,2506,-15,0,7,-55
255,1,0.00000000,0.00000000,0.0,0,0,0,0,1001.45,30,16.72,2448,2507,-15,0,7,-54
256,1,0.00000000,0.00000000,0.0,0,0,0,0,1001.48,30,16.68,2446,2506,-15,0,7,-54
257,1,0.00000000,0.00000000,0.0,0,0,0,0,1001.49,30,16.64,2446,2504,-15,0,7,-56
258,1,0.00000000,0.00000000,0.0,0,0,0,0,1001.51,30,16.6,2446,2501,-15,0,7,-55
259,1,0.00000000,0.00000000,0.0,0,0,0,0,1001.47,30,16.55,2448,2507,-15,0,7,-56
260,1,0.00000000,0.00000000,0.0,0,0,0,0,1001.46,30,16.51,2448,2507,-15,0,7,-56
261,1,0.00000000,0.00000000,0.0,0,0,0,0,1001.46,30,16.47,2447,2507,-15,0,7,-55
262,1,0.00000000,0.00000000,0.0,0,0,0,0,1001.51,30,16.43,2448,2507,-15,0,7,-53
263,1,0.00000000,0.00000000,0.0,0,0,0,0,1001.51,30,16.38,2448,2508,-15,0,7,-54
264,1,0.00000000,0.00000000,0.0,0,0,0,0,1001.5,30,16.34,2448,2507,-15,0,7,-53
265,1,0.00000000,0.00000000,0.0,0,0,0,0,1001.52,30,16.3,2448,2509,-15,0,7,-54
266,1,0.00000000,0.00000000,0.0,0,0,0,0,1001.52,30,16.26,2449,2506,-15,0,7,-54
267,1,0.00000000,0.00000000,0.0,0,0,0,0,1001.49,30,16.21,2449,2506,-15,0,7,-54
268,1,0.00000000,0.00000000,0.0,0,0,0,0,1001.46,30,16.17,2449,2507,-15,0,7,-53
269,1,0.00000000,0.00000000,0.0,0,0,0,0,1001.46,30,16.13,2450,2506,-15,0,7,-53
270,1,0.00000000,0.00000000,0.0,0,0,0,0,1001.48,30,16.09,2451,2506,-15,0,7,-53
271,1,0.00000000,0.00000000,0.0,0,0,0,0,1001.49,30,16.04,2452,2507,-15,0,7,-54
272,1,0.00000000,0.00000000,0.0,0,0,0,0,1001.47,30,16.0,2452,2505,-15,0,7,-54
273,1,0.00000000,0.00000000,0.0,0,0,0,0,1001.44,30,15.96,2453,2499,-15,0,7,-54
274,1,0.00000000,0.00000000,0.0,0,0,0,0,1001.48,30,15.91,2452,2507,-15,0,7,-54
275,1,0.00000000,0.00000000,0.0,0,0,0,0,1001.45,30,15.86,2453,2508,-15,0,7,-54
276,1,0.00000000,0.00000000,0.0,0,0,0,0,1001.45,30,15.82,2453,2507,-15,0,7,-54
277,1,0.00000000,0.00000000,0.0,0,0,0,0,1001.47,30,15.78,2454,2507,-15,0,7,-54
278,1,0.00000000,0.00000000,0.0,0,0,0,0,1001.46,30,15.75,2455,2507,-15,0,7,-54
279,1,0.00000000,0.00000000,0.0,0,0,0,0,1001.47,30,15.71,2455,2507,-15,0,7,-54
280,1,0.00000000,0.00000000,0.0,0,0,0,0,1001.47,30,15.67,2455,2507,-15,0,7,-54
281,1,0.00000000,0.00000000,0.0,0,0,0,0,1001.45,30,15.63,2456,2512,-15,0,7,-54
282,1,0.00000000,0.00000000,0.0,0,0,0,0,1001.47,30,15.59,2455,2517,-15,0,7,-54
283,1,0.00000000,0.00000000,0.0,0,0,0,0,1001.45,30,15.54,2454,2506,-15,0,7,-54
284,1,0.00000000,0.00000000,0.0,0,0,0,0,1001.48,30,15.51,2455,2506,-15,0,7,-54
285,1,0.00000000,0.00000000,0.0,0,0,0,0,1001.44,30,15.46,2455,2507,-15,0,7,-54
286,1,0.00000000,0.00000000,0.0,0,0,0,0,1001.46,30,15.42,2456,2506,-15,0,7,-54
287,1,0.00000000,0.00000000,0.0,0,0,0,0,1001.43,30,15.38,2456,2506,-15,0,7,-54
288,1,0.00000000,0.00000000,0.0,0,0,0,0,1001.44,30,15.34,2458,2506,-15,0,7,-55
289,1,0.00000000,0.00000000,0.0,0,0,0,0,1001.43,30,15.31,2456,2505,-15,0,7,-55
290,1,0.00000000,0.00000000,0.0,0,0,0,0,1001.43,30,15.27,2458,2506,-15,0,7,-55
291,1,0.00000000,0.00000000,0.0,0,0,0,0,1001.41,30,15.22,2456,2506,-15,0,7,-54
292,1,0.00000000,0.00000000,0.0,0,0,0,0,1001.42,30,15.19,2456,2507,-15,0,7,-54
293,1,0.00000000,0.00000000,0.0,0,0,0,0,1001.41,30,15.15,2456,2506,-15,0,7,-55
294,1,0.00000000,0.00000000,0.0,0,0,0,0,1001.39,30,15.11,2457,2506,-15,0,7,-54
295,1,0.00000000,0.00000000,0.0,0,0,0,0,1001.43,30,15.07,2456,2507,-15,0,7,-54
296,1,0.00000000,0.00000000,0.0,0,0,0,0,1001.41,30,15.03,2456,2505,-15,0,7,-55
297,1,0.00000000,0.00000000,0.0,0,0,0,0,1001.39,30,14.99,2457,2506,-15,0,7,-54
298,1,0.00000000,0.00000000,0.0,0,0,0,0,1001.41,30,14.95,2458,2504,-15,0,7,-54
299,1,0.00000000,0.00000000,0.0,0,0,0,0,1001.41,30,14.91,2458,2504,-15,0,7,-54
300,1,0.00000000,0.00000000,0.0,0,0,0,0,1001.41,30,14.88,2458,2507,-15,0,7,-54
301,1,0.00000000,0.00000000,0.0,0,0,0,0,1001.4,30,14.84,2459,2505,-15,0,7,-53
302,1,0.00000000,0.00000000,0.0,0,0,0,0,1001.42,30,14.8,2461,2505,-15,0,7,-54
303,1,0.00000000,0.00000000,0.0,0,0,0,0,1001.43,30,14.77,2460,2505,-15,0,7,-55
304,1,0.00000000,0.00000000,0.0,0,0,0,0,1001.43,30,14.73,2459,2505,-15,0,7,-54
305,1,0.00000000,0.00000000,0.0,0,0,0,0,1001.45,30,14.69,2461,2506,-15,0,7,-55
306,1,0.00000000,0.00000000,0.0,0,0,0,0,1001.43,30,14.65,2461,2506,-15,0,7,-56
307,1,0.00000000,0.00000000,0.0,0,0,0,0,1001.66,30,14.61,2460,2504,-15,0,7,-56
308,1,0.00000000,0.00000000,0.0,0,0,0,0,1001.42,30,14.57,2459,2507,-15,0,7,-55
309,1,0.00000000,0.00000000,0.0,0,0,0,0,1001.41,30,14.53,2460,2506,-15,0,7,-56
310,1,0.00000000,0.00000000,0.0,0,0,0,0,1001.41,30,14.49,2460,2506,-15,0,7,-55
311,1,0.00000000,0.00000000,0.0,0,0,0,0,1001.43,30,14.46,2461,2507,-15,0,7,-55
312,1,0.00000000,0.00000000,0.0,0,0,0,0,1001.42,30,14.42,2462,2506,-15,0,7,-56
313,1,0.00000000,0.00000000,0.0,0,0,0,0,1001.4,30,14.38,2463,2507,-15,0,7,-55
314,1,0.00000000,0.00000000,0.0,0,0,0,0,1001.42,30,14.35,2463,2506,-15,0,7,-55
315,1,0.00000000,0.00000000,0.0,0,0,0,0,1001.41,30,14.31,2465,2502,-15,0,7,-55
316,1,0.00000000,0.00000000,0.0,0,0,0,0,1001.44,30,14.27,2465,2505,-15,0,7,-56
317,1,0.00000000,0.00000000,0.0,0,0,0,0,1001.4,30,14.23,2466,2505,-15,0,7,-55
318,1,0.00000000,0.00000000,0.0,0,0,0,0,1001.45,29,14.2,2466,2505,-15,0,7,-55
319,1,0.00000000,0.00000000,0.0,0,0,0,0,1001.44,29,14.16,2468,2506,-15,0,7,-55
320,1,0.00000000,0.00000000,0.0,0,0,0,0,1001.43,29,14.13,2468,2505,-15,0,7,-56
321,1,0.00000000,0.00000000,0.0,0,0,0,0,1001.45,29,14.09,2469,2505,-15,0,7,-55
322,1,0.00000000,0.00000000,0.0,0,0,0,0,1001.45,29,14.05,2470,2506,-15,0,7,-55
323,1,0.00000000,0.00000000,0.0,0,0,0,0,1001.43,29,14.02,2470,2505,-15,0,7,-57
324,1,0.00000000,0.00000000,0.0,0,0,0,0,1001.46,29,13.98,2469,2506,-15,0,7,-53
325,1,0.00000000,0.00000000,0.0,0,0,0,0,1001.47,29,13.95,2470,2508,-15,0,7,-55
326,1,0.00000000,0.00000000,0.0,0,0,0,0,1001.46,29,13.91,2469,2506,-15,0,7,-55
327,1,0.00000000,0.00000000,0.0,0,0,0,0,1001.44,29,13.87,2469,2506,-15,0,7,-58
328,1,0.00000000,0.00000000,0.0,0,0,0,0,1001.42,29,13.84,2470,2505,-15,0,7,-56
329,1,0.00000000,0.00000000,0.0,0,0,0,0,1001.44,29,13.8,2469,2505,-15,0,7,-55
330,1,0.00000000,0.00000000,0.0,0,0,0,0,1001.48,29,13.77,2471,2506,-15,0,7,-56
331,1,0.00000000,0.00000000,0.0,0,0,0,0,1001.43,29,13.74,2470,2516,-15,0,7,-55
332,1,0.00000000,0.00000000,0.0,0,0,0,0,1001.42,29,13.7,2470,2514,-15,0,7,-55
333,1,0.00000000,0.00000000,0.0,0,0,0,0,1001.44,29,13.67,2470,2505,-15,0,7,-56
334,1,0.00000000,0.00000000,0.0,0,0,0,0,1001.44,29,13.63,2471,2504,-15,0,7,-55
335,1,0.00000000,0.00000000,0.0,0,0,0,0,1001.45,29,13.59,2471,2505,-15,0,7,-56
336,1,0.00000000,0.00000000,0.0,0,0,0,0,1001.43,29,13.56,2471,2505,-15,0,7,-55
337,1,0.00000000,0.00000000,0.0,0,0,0,0,1001.44,29,13.53,2471,2505,-15,0,7,-56
338,1,0.00000000,0.00000000,0.0,0,0,0,0,1001.4,29,13.49,2471,2504,-15,0,7,-55
339,1,0.00000000,0.00000000,0.0,0,0,0,0,1001.44,29,13.45,2472,2506,-15,0,7,-55
340,1,0.00000000,0.00000000,0.0,0,0,0,0,1001.47,29,13.42,2472,2505,-15,0,7,-55
341,1,0.00000000,0.00000000,0.0,0,0,0,0,1001.44,29,13.39,2472,2506,-15,0,7,-55
342,1,0.00000000,0.00000000,0.0,0,0,0,0,1001.43,29,13.35,2471,2506,-15,0,7,-55
343,1,0.00000000,0.00000000,0.0,0,0,0,0,1001.43,29,13.32,2471,2506,-15,0,7,-56
344,1,0.00000000,0.00000000,0.0,0,0,0,0,1001.39,29,13.28,2471,2505,-15,0,7,-55
345,1,0.00000000,0.00000000,0.0,0,0,0,0,1001.44,29,13.25,2469,2505,-15,0,7,-54
346,1,0.00000000,0.00000000,0.0,0,0,0,0,1001.4,29,13.21,2468,2505,-15,0,7,-55
347,1,0.00000000,0.00000000,0.0,0,0,0,0,1001.37,29,13.18,2469,2505,-15,0,7,-54
348,1,0.00000000,0.00000000,0.0,0,0,0,0,1001.42,29,13.14,2469,2505,-15,0,7,-55
349,1,0.00000000,0.00000000,0.0,0,0,0,0,1001.41,29,13.11,2468,2510,-15,0,7,-56
350,1,0.00000000,0.00000000,0.0,0,0,0,0,1001.42,29,13.08,2468,2504,-15,0,7,-57
351,1,0.00000000,0.00000000,0.0,0,0,0,0,1001.41,29,13.04,2469,2504,-15,0,7,-55
352,1,0.00000000,0.00000000,0.0,0,0,0,0,1001.41,29,13.01,2469,2505,-15,0,7,-54
353,1,0.00000000,0.00000000,0.0,0,0,0,0,1001.41,29,12.98,2468,2505,-15,0,7,-54
354,1,0.00000000,0.00000000,0.0,0,0,0,0,1001.41,29,12.94,2468,2504,-15,0,7,-55
355,1,0.00000000,0.00000000,0.0,0,0,0,0,1001.38,29,12.91,2468,2505,-15,0,7,-55
356,1,0.00000000,0.00000000,0.0,0,0,0,0,1001.39,29,12.88,2468,2504,-15,0,7,-55
357,1,0.00000000,0.00000000,0.0,0,0,0,0,1001.39,29,12.84,2467,2506,-15,0,7,-55
358,1,0.00000000,0.00000000,0.0,0,0,0,0,1001.39,29,12.81,2466,2505,-15,0,7,-55
359,1,0.00000000,0.00000000,0.0,0,0,0,0,1001.42,29,12.78,2466,2506,-15,0,7,-56
360,1,0.00000000,0.00000000,0.0,0,0,0,0,1001.42,29,12.75,2467,2505,-15,0,7,-55
361,1,0.00000000,0.00000000,0.0,0,0,0,0,1001.45,29,12.72,2467,2504,-15,0,7,-55
362,1,0.00000000,0.00000000,0.0,0,0,0,0,1001.45,29,12.69,2467,2504,-15,0,7,-56
363,1,0.00000000,0.00000000,0.0,0,0,0,0,1001.43,29,12.65,2467,2505,-15,0,7,-56
364,1,0.00000000,0.00000000,0.0,0,0,0,0,1001.43,29,12.61,2468,2505,-15,0,7,-57
365,1,0.00000000,0.00000000,0.0,0,0,0,0,1001.44,29,12.59,2468,2488,-15,0,7,-56
366,1,0.00000000,0.00000000,0.0,0,0,0,0,1001.4,29,12.56,2469,2506,-15,0,7,-55
367,1,0.00000000,0.00000000,0.0,0,0,0,0,1001.47,29,12.52,2470,2505,-15,0,7,-58
368,1,0.00000000,0.00000000,0.0,0,0,0,0,1001.43,29,12.49,2469,2505,-15,0,7,-56
369,1,0.00000000,0.00000000,0.0,0,0,0,0,1001.48,29,12.47,2470,2504,-15,0,7,-56
370,1,0.00000000,0.00000000,0.0,0,0,0,0,1001.46,29,12.43,2469,2505,-15,0,7,-56
371,1,0.00000000,0.00000000,0.0,0,0,0,0,1001.46,29,12.4,2470,2505,-15,0,7,-56
372,1,0.00000000,0.00000000,0.0,0,0,0,0,1001.46,29,12.36,2471,2504,-15,0,7,-56
373,1,0.00000000,0.00000000,0.0,0,0,0,0,1001.47,29,12.34,2471,2518,-15,0,7,-58
374,1,0.00000000,0.00000000,0.0,0,0,0,0,1001.46,29,12.3,2470,2510,-15,0,7,-56
375,1,0.00000000,0.00000000,0.0,0,0,0,0,1001.46,29,12.27,2471,2504,-15,0,7,-57
376,1,0.00000000,0.00000000,0.0,0,0,0,0,1001.48,29,12.24,2472,2505,-15,0,7,-57
377,1,0.00000000,0.00000000,0.0,0,0,0,0,1001.47,29,12.21,2471,2505,-15,0,7,-56
378,1,0.00000000,0.00000000,0.0,0,0,0,0,1001.45,29,12.17,2471,2504,-15,0,7,-57
379,1,0.00000000,0.00000000,0.0,0,0,0,0,1001.48,29,12.15,2472,2505,-15,0,7,-56
380,1,0.00000000,0.00000000,0.0,0,0,0,0,1001.49,29,12.11,2473,2504,-15,0,7,-56
381,1,0.00000000,0.00000000,0.0,0,0,0,0,1001.5,29,12.09,2473,2504,-15,0,7,-56
382,1,0.00000000,0.00000000,0.0,0,0,0,0,1001.46,29,12.05,2472,2506,-15,0,7,-57
383,1,0.00000000,0.00000000,0.0,0,0,0,0,1001.47,29,12.02,2473,2505,-15,0,7,-57
384,1,0.00000000,0.00000000,0.0,0,0,0,0,1001.47,29,11.98,2473,2504,-15,0,7,-55
385,1,0.00000000,0.00000000,0.0,0,0,0,0,1001.45,29,11.95,2474,2504,-15,0,7,-56
386,1,0.00000000,0.00000000,0.0,0,0,0,0,1001.47,29,11.92,2474,2504,-15,0,7,-56
387,1,0.00000000,0.00000000,0.0,0,0,0,0,1001.47,29,11.89,2474,2504,-15,0,7,-56
388,1,0.00000000,0.00000000,0.0,0,0,0,0,1001.49,29,11.86,2474,2503,-15,0,7,-56
389,1,0.00000000,0.00000000,0.0,0,0,0,0,1001.47,29,11.84,2474,2504,-15,0,7,-56
390,1,0.00000000,0.00000000,0.0,0,0,0,0,1001.48,29,11.8,2475,2507,-15,0,7,-56
391,1,0.00000000,0.00000000,0.0,0,0,0,0,1001.49,29,11.77,2475,2505,-15,0,7,-56
392,1,0.00000000,0.00000000,0.0,0,0,0,0,1001.49,29,11.75,2475,2505,-15,0,7,-56
393,1,0.00000000,0.00000000,0.0,0,0,0,0,1001.46,29,11.72,2474,2505,-15,0,7,-55
394,1,0.00000000,0.00000000,0.0,0,0,0,0,1001.46,29,11.69,2475,2505,-15,0,7,-56
395,1,0.00000000,0.00000000,0.0,0,0,0,0,1001.45,29,11.65,2475,2504,-15,0,7,-56
396,1,0.00000000,0.00000000,0.0,0,0,0,0,1001.45,29,11.62,2475,2503,-15,0,7,-56
397,1,0.00000000,0.00000000,0.0,0,0,0,0,1001.46,29,11.6,2474,2503,-15,0,7,-56
398,1,0.00000000,0.00000000,0.0,0,0,0,0,1001.46,29,11.57,2475,2504,-15,0,7,-56
399,1,0.00000000,0.00000000,0.0,0,0,0,0,1001.47,29,11.54,2474,2503,-15,0,7,-55
400,1,0.00000000,0.00000000,0.0,0,0,0,0,1001.45,29,11.51,2474,2505,-15,0,7,-55
401,1,0.00000000,0.00000000,0.0,0,0,0,0,1001.45,29,11.48,2474,2503,-15,0,7,-55
402,1,0.00000000,0.00000000,0.0,0,0,0,0,1001.48,29,11.45,2474,2505,-15,0,7,-56
403,1,0.00000000,0.00000000,0.0,0,0,0,0,1001.45,29,11.42,2474,2503,-15,0,7,-56
404,1,0.00000000,0.00000000,0.0,0,0,0,0,1001.45,29,11.39,2474,2504,-15,0,7,-55
405,1,0.00000000,0.00000000,0.0,0,0,0,0,1001.43,29,11.36,2475,2504,-15,0,7,-57
406,1,0.00000000,0.00000000,0.0,0,0,0,0,1001.45,29,11.33,2473,2508,-15,0,7,-56
407,1,0.00000000,0.00000000,0.0,0,0,0,0,1001.48,29,11.3,2474,2500,-15,0,7,-56
408,1,0.00000000,0.00000000,0.0,0,0,0,0,1001.47,29,11.27,2474,2502,-15,0,7,-55
409,1,0.00000000,0.00000000,0.0,0,0,0,0,1001.47,29,11.24,2475,2505,-15,0,7,-56
410,1,0.00000000,0.00000000,0.0,0,0,0,0,1001.45,29,11.22,2475,2504,-15,0,7,-56
411,1,0.00000000,0.00000000,0.0,0,0,0,0,1001.45,29,11.18,2477,2504,-15,0,7,-57
412,1,0.00000000,0.00000000,0.0,0,0,0,0,1001.46,29,11.15,2478,2504,-15,0,7,-56
413,1,0.00000000,0.00000000,0.0,0,0,0,0,1001.45,29,11.13,2479,2504,-15,0,7,-55
414,1,0.00000000,0.00000000,0.0,0,0,0,0,1001.43,29,11.1,2479,2505,-15,0,7,-55
415,1,0.00000000,0.00000000,0.0,0,0,0,0,1001.43,29,11.07,2480,2504,-15,0,7,-55
416,1,0.00000000,0.00000000,0.0,0,0,0,0,1001.43,29,11.04,2480,2505,-15,0,7,-55
417,1,0.00000000,0.00000000,0.0,0,0,0,0,1001.43,29,11.01,2481,2504,-15,0,7,-55
418,1,0.00000000,0.00000000,0.0,0,0,0,0,1001.41,29,10.98,2481,2502,-15,0,7,-56
419,1,0.00000000,0.00000000,0.0,0,0,0,0,1001.44,29,10.96,2481,2503,-15,0,7,-56
420,1,0.00000000,0.00000000,0.0,0,0,0,0,1001.43,29,10.93,2481,2502,-15,0,7,-56
421,1,0.00000000,0.00000000,0.0,0,0,0,0,1001.43,29,10.9,2482,2503,-15,0,7,-56
422,1,0.00000000,0.00000000,0.0,0,0,0,0,1001.44,29,10.87,2481,2503,-15,0,7,-56
423,1,0.00000000,0.00000000,0.0,0,0,0,0,1001.4,29,10.84,2482,2503,-15,0,7,-57
424,1,0.00000000,0.00000000,0.0,0,0,0,0,1001.43,29,10.82,2481,2506,-15,0,7,-57
425,1,0.00000000,0.00000000,0.0,0,0,0,0,1001.44,29,10.79,2482,2513,-15,0,7,-56
426,1,0.00000000,0.00000000,0.0,0,0,0,0,1001.41,29,10.75,2483,2504,-15,0,7,-56
427,1,0.00000000,0.00000000,0.0,0,0,0,0,1001.38,29,10.72,2483,2503,-15,0,7,-57
428,1,0.00000000,0.00000000,0.0,0,0,0,0,1001.39,29,10.7,2484,2504,-15,0,7,-56
429,1,0.00000000,0.00000000,0.0,0,0,0,0,1001.4,29,10.66,2485,2503,-15,0,7,-56
430,1,0.00000000,0.00000000,0.0,0,0,0,0,1001.43,29,10.63,2486,2504,-15,0,7,-55
431,1,0.00000000,0.00000000,0.0,0,0,0,0,1001.43,29,10.61,2487,2504,-15,0,7,-55
432,1,0.00000000,0.00000000,0.0,0,0,0,0,1001.4,29,10.58,2487,2504,-15,0,7,-55
433,1,0.00000000,0.00000000,0.0,0,0,0,0,1001.44,29,10.55,2488,2503,-15,0,7,-55
434,1,0.00000000,0.00000000,0.0,0,0,0,0,1001.41,28,10.53,2488,2504,-15,0,7,-56
435,1,0.00000000,0.00000000,0.0,0,0,0,0,1001.44,28,10.5,2488,2504,-15,0,7,-55
436,1,0.00000000,0.00000000,0.0,0,0,0,0,1001.43,28,10.47,2489,2503,-15,0,7,-55
437,1,0.00000000,0.00000000,0.0,0,0,0,0,1001.4,28,10.44,2488,2502,-15,0,7,-56
438,1,0.00000000,0.00000000,0.0,0,0,0,0,1001.44,28,10.42,2488,2501,-15,0,7,-57
439,1,0.00000000,0.00000000,0.0,0,0,0,0,1001.44,28,10.39,2487,2502,-15,0,7,-55
440,1,0.00000000,0.00000000,0.0,0,0,0,0,1001.41,28,10.36,2488,2502,-15,0,7,-55
441,1,0.00000000,0.00000000,0.0,0,0,0,0,1001.44,28,10.33,2487,2503,-15,0,7,-55
442,1,0.00000000,0.00000000,0.0,0,0,0,0,1001.42,28,10.3,2489,2503,-15,0,7,-55
443,1,0.00000000,0.00000000,0.0,0,0,0,0,1001.42,28,10.27,2487,2502,-15,0,7,-54
444,1,0.00000000,0.00000000,0.0,0,0,0,0,1001.44,28,10.25,2487,2502,-15,0,7,-54
445,1,0.00000000,0.00000000,0.0,0,0,0,0,1001.45,28,10.23,2487,2503,-15,0,7,-55
446,1,0.00000000,0.00000000,0.0,0,0,0,0,1001.46,28,10.2,2487,2502,-15,0,7,-54
447,1,0.00000000,0.00000000,0.0,0,0,0,0,1001.44,28,10.18,2487,2502,-15,0,7,-54
448,1,0.00000000,0.00000000,0.0,0,0,0,0,1001.43,28,10.15,2487,2503,-15,0,8,-54
449,1,0.00000000,0.00000000,0.0,0,0,0,0,1001.45,28,10.12,2486,2504,-15,0,8,-58
450,1,0.00000000,0.00000000,0.0,0,0,0,0,1001.46,28,10.1,2486,2503,-15,0,8,-58
451,1,0.00000000,0.00000000,0.0,0,0,0,0,1001.44,28,10.07,2486,2503,-15,0,7,-58
452,1,0.00000000,0.00000000,0.0,0,0,0,0,1001.46,28,10.05,2486,2495,-15,0,7,-57
453,1,0.00000000,0.00000000,0.0,0,0,0,0,1001.42,28,10.01,2486,2502,-15,0,8,-57
454,1,0.00000000,0.00000000,0.0,0,0,0,0,1001.45,28,9.98,2487,2502,-15,0,8,-57
455,1,0.00000000,0.00000000,0.0,0,0,0,0,1001.47,28,9.96,2487,2502,-15,0,8,-56
456,1,0.00000000,0.00000000,0.0,0,0,0,0,1001.46,28,9.93,2487,2502,-15,0,8,-57
457,1,0.00000000,0.00000000,0.0,0,0,0,0,1001.42,28,9.91,2488,2502,-15,0,8,-55
458,1,0.00000000,0.00000000,0.0,0,0,0,0,1001.44,28,9.88,2488,2501,-15,0,8,-56
459,1,0.00000000,0.00000000,0.0,0,0,0,0,1001.46,28,9.85,2488,2503,-15,0,8,-56
460,1,0.00000000,0.00000000,0.0,0,0,0,0,1001.44,28,9.83,2489,2500,-15,0,8,-55
461,1,0.00000000,0.00000000,0.0,0,0,0,0,1001.44,28,9.8,2488,2490,-15,0,8,-55
462,1,0.00000000,0.00000000,0.0,0,0,0,0,1001.45,28,9.78,2488,2503,-15,0,8,-55
463,1,0.00000000,0.00000000,0.0,0,0,0,0,1001.44,28,9.75,2488,2503,-15,0,8,-54
464,1,0.00000000,0.00000000,0.0,0,0,0,0,1001.44,28,9.72,2489,2503,-15,0,8,-54
465,1,0.00000000,0.00000000,0.0,0,0,0,0,1001.43,28,9.69,2490,2502,-15,0,8,-54
466,1,0.00000000,0.00000000,0.0,0,0,0,0,1001.43,28,9.67,2489,2504,-15,0,8,-55
467,1,0.00000000,0.00000000,0.0,0,0,0,0,1001.44,28,9.64,2490,2502,-15,0,8,-55
468,1,0.00000000,0.00000000,0.0,0,0,0,0,1001.43,28,9.62,2491,2502,-15,0,8,-54
469,1,0.00000000,0.00000000,0.0,0,0,0,0,1001.44,28,9.59,2490,2502,-15,0,8,-55
470,1,0.00000000,0.00000000,0.0,0,0,0,0,1001.44,28,9.56,2490,2501,-15,0,8,-54
471,1,0.00000000,0.00000000,0.0,0,0,0,0,1001.42,28,9.54,2490,2502,-15,0,8,-54
472,1,0.00000000,0.00000000,0.0,0,0,0,0,1001.44,28,9.51,2490,2500,-15,0,8,-54
473,1,0.00000000,0.00000000,0.0,0,0,0,0,1001.42,28,9.49,2490,2501,-15,0,8,-54
474,1,0.00000000,0.00000000,0.0,0,0,0,0,1001.42,28,9.46,2490,2501,-15,0,8,-54
475,1,0.00000000,0.00000000,0.0,0,0,0,0,1001.42,28,9.43,2491,2502,-15,0,8,-54
476,1,0.00000000,0.00000000,0.0,0,0,0,0,1001.4,28,9.41,2492,2501,-15,0,8,-54
477,1,0.00000000,0.00000000,0.0,0,0,0,0,1001.42,28,9.38,2493,2502,-15,0,8,-54
478,1,0.00000000,0.00000000,0.0,0,0,0,0,1001.42,28,9.35,2493,2502,-15,0,8,-54
479,1,0.00000000,0.00000000,0.0,0,0,0,0,1001.4,28,9.32,2494,2502,-15,0,8,-54
480,1,0.00000000,0.00000000,0.0,0,0,0,0,1001.4,28,9.31,2494,2503,-15,0,8,-54
481,1,0.00000000,0.00000000,0.0,0,0,0,0,1001.42,28,9.28,2494,2502,-15,0,8,-54
482,1,0.00000000,0.00000000,0.0,0,0,0,0,1001.42,28,9.26,2494,2502,-15,0,8,-54
483,1,0.00000000,0.00000000,0.0,0,0,0,0,1001.42,28,9.23,2495,2503,-15,0,8,-56
484,1,0.00000000,0.00000000,0.0,0,0,0,0,1001.41,28,9.2,2495,2502,-15,0,8,-55
485,1,0.00000000,0.00000000,0.0,0,0,0,0,1001.41,28,9.18,2495,2502,-15,0,8,-55
486,1,0.00000000,0.00000000,0.0,0,0,0,0,1001.42,28,9.15,2495,2503,-15,0,8,-55
487,1,0.00000000,0.00000000,0.0,0,0,0,0,1001.42,28,9.13,2495,2499,-15,0,8,-55
488,1,0.00000000,0.00000000,0.0,0,0,0,0,1001.39,28,9.1,2495,2501,-15,0,8,-55
489,1,0.00000000,0.00000000,0.0,0,0,0,0,1001.43,28,9.08,2495,2501,-15,0,8,-55
490,1,0.00000000,0.00000000,0.0,0,0,0,0,1001.4,28,9.05,2495,2500,-15,0,8,-56
491,1,0.00000000,0.00000000,0.0,0,0,0,0,1001.41,28,9.03,2495,2500,-15,0,8,-56
492,1,0.00000000,0.00000000,0.0,0,0,0,0,1001.41,28,9.0,2496,2501,-15,0,8,-56
493,1,0.00000000,0.00000000,0.0,0,0,0,0,1001.39,28,8.98,2496,2501,-15,0,8,-56
494,1,0.00000000,0.00000000,0.0,0,0,0,0,1001.39,28,8.95,2495,2501,-15,0,8,-55
495,1,0.00000000,0.00000000,0.0,0,0,0,0,1001.4,28,8.92,2497,2503,-15,0,8,-55
496,1,0.00000000,0.00000000,0.0,0,0,0,0,1001.42,28,8.91,2496,2499,-15,0,8,-56
497,1,0.00000000,0.00000000,0.0,0,0,0,0,1001.41,28,8.88,2496,2503,-15,0,8,-56
498,1,0.00000000,0.00000000,0.0,0,0,0,0,1001.41,28,8.87,2495,2501,-15,0,8,-59
499,1,0.00000000,0.00000000,0.0,0,0,0,0,1001.44,28,8.84,2496,2501,-15,0,8,-58
500,1,0.00000000,0.00000000,0.0,0,0,0,0,1001.4,28,8.81,2495,2501,-15,0,8,-59
501,1,0.00000000,0.00000000,0.0,0,0,0,0,1001.41,28,8.79,2495,2502,-15,0,8,-59
502,1,0.00000000,0.00000000,0.0,0,0,0,0,1001.43,28,8.76,2496,2501,-15,0,8,-57
503,1,0.00000000,0.00000000,0.0,0,0,0,0,1001.42,28,8.74,2496,2501,-15,0,8,-57
504,1,0.00000000,0.00000000,0.0,0,0,0,0,1001.4,28,8.71,2496,2504,-15,0,8,-57
505,1,0.00000000,0.00000000,0.0,0,0,0,0,1001.41,28,8.69,2497,2501,-15,0,8,-58
506,1,0.00000000,0.00000000,0.0,0,0,0,0,1001.42,28,8.66,2496,2500,-15,0,8,-58
507,1,0.00000000,0.00000000,0.0,0,0,0,0,1001.39,28,8.64,2496,2501,-15,0,8,-58
508,1,0.00000000,0.00000000,0.0,0,0,0,0,1001.39,28,8.62,2497,2501,-15,0,8,-58
509,1,0.00000000,0.00000000,0.0,0,0,0,0,1001.38,28,8.6,2497,2502,-15,0,8,-58
510,1,0.00000000,0.00000000,0.0,0,0,0,0,1001.4,28,8.58,2497,2502,-15,0,8,-58
511,1,0.00000000,0.00000000,0.0,0,0,0,0,1001.41,28,8.55,2498,2501,-15,0,8,-58
512,1,0.00000000,0.00000000,0.0,0,0,0,0,1001.41,28,8.52,2498,2502,-15,0,8,-59
513,1,0.00000000,0.00000000,0.0,0,0,0,0,1001.42,28,8.49,2499,2501,-15,0,8,-59
514,1,0.00000000,0.00000000,0.0,0,0,0,0,1001.43,28,8.47,2500,2511,-15,0,8,-59
515,1,0.00000000,0.00000000,0.0,0,0,0,0,1001.43,28,8.45,2499,2501,-15,0,8,-59
516,1,0.00000000,0.00000000,0.0,0,0,0,0,1001.45,28,8.43,2500,2501,-15,0,8,-58
517,1,0.00000000,0.00000000,0.0,0,0,0,0,1001.43,28,8.4,2501,2502,-15,0,8,-56
518,1,0.00000000,0.00000000,0.0,0,0,0,0,1001.42,28,8.37,2501,2501,-15,0,8,-56
519,1,0.00000000,0.00000000,0.0,0,0,0,0,1001.41,28,8.35,2502,2501,-15,0,8,-56
520,1,0.00000000,0.00000000,0.0,0,0,0,0,1001.45,28,8.33,2502,2501,-15,0,8,-56
521,1,0.00000000,0.00000000,0.0,0,0,0,0,1001.48,28,8.3,2502,2500,-15,0,8,-57
522,1,0.00000000,0.00000000,0.0,0,0,0,0,1001.48,28,8.28,2502,2506,-15,0,8,-56
523,1,0.00000000,0.00000000,0.0,0,0,0,0,1001.47,28,8.25,2503,2501,-15,0,8,-56
524,1,0.00000000,0.00000000,0.0,0,0,0,0,1001.48,28,8.23,2504,2501,-15,0,8,-56
525,1,0.00000000,0.00000000,0.0,0,0,0,0,1001.47,28,8.21,2505,2501,-15,0,8,-56
526,1,0.00000000,0.00000000,0.0,0,0,0,0,1001.49,28,8.19,2505,2501,-15,0,8,-56
527,1,0.00000000,0.00000000,0.0,0,0,0,0,1001.48,28,8.15,2505,2501,-15,0,8,-56
528,1,0.00000000,0.00000000,0.0,0,0,0,0,1001.47,28,8.13,2504,2501,-15,0,8,-56
529,1,0.00000000,0.00000000,0.0,0,0,0,0,1001.45,28,8.11,2505,2501,-15,0,8,-56
530,1,0.00000000,0.00000000,0.0,0,0,0,0,1001.46,28,8.09,2505,2499,-15,0,8,-56
531,1,0.00000000,0.00000000,0.0,0,0,0,0,1001.44,28,8.06,2504,2505,-15,0,8,-57
532,1,0.00000000,0.00000000,0.0,0,0,0,0,1001.45,28,8.03,2503,2507,-15,0,8,-56
533,1,0.00000000,0.00000000,0.0,0,0,0,0,1001.46,28,8.02,2504,2500,-15,0,8,-57
534,1,0.00000000,0.00000000,0.0,0,0,0,0,1001.47,28,7.99,2503,2501,-15,0,8,-56
535,1,0.00000000,0.00000000,0.0,0,0,0,0,1001.46,28,7.97,2503,2500,-15,0,8,-59
536,1,0.00000000,0.00000000,0.0,0,0,0,0,1001.44,28,7.94,2503,2501,-15,0,8,-59
537,1,0.00000000,0.00000000,0.0,0,0,0,0,1001.42,28,7.92,2504,2501,-15,0,8,-57
538,1,0.00000000,0.00000000,0.0,0,0,0,0,1001.5,28,7.9,2504,2500,-15,0,8,-54
539,1,0.00000000,0.00000000,0.0,0,0,0,0,1001.49,28,7.88,2503,2500,-15,0,8,-58
540,1,0.00000000,0.00000000,0.0,0,0,0,0,1001.46,28,7.85,2503,2502,-16,0,22,-47
541,1,0.00000000,0.00000000,0.0,0,0,0,0,1001.46,28,7.83,2503,2499,31,22,17,-53
542,1,0.00000000,0.00000000,0.0,0,0,0,0,1001.41,28,7.81,2341,2500,-112,-9,-44,-62
543,1,0.00000000,0.00000000,0.0,0,0,0,0,1001.41,29,7.82,2118,2500,92,-39,64,-53
544,1,0.00000000,0.00000000,0.0,0,0,0,0,1001.44,30,7.82,1936,2500,53,-47,82,-51
545,1,0.00000000,0.00000000,0.0,0,0,0,0,1001.43,31,7.83,1773,2500,-82,-12,-43,-47
546,1,0.00000000,0.00000000,0.0,0,0,0,0,1001.42,32,7.84,1611,2499,-72,-37,-31,-47
547,1,0.00000000,0.00000000,0.0,0,0,0,0,1001.44,33,7.86,1489,2499,-48,-30,-29,-53
548,1,0.00000000,0.00000000,0.0,0,0,0,0,1001.44,36,7.88,1398,2499,-119,-29,-14,-47
549,1,0.00000000,0.00000000,0.0,0,0,0,0,1001.48,39,7.92,1338,2491,30,-4,33,-41
550,1,0.00000000,0.00000000,0.0,0,0,0,0,1001.5,42,7.94,1286,2490,10,-2,-1,-42
551,1,0.00000000,0.00000000,0.0,0,0,0,0,1001.48,43,7.96,1256,2500,10,-2,0,-42
552,1,0.00000000,0.00000000,0.0,0,0,0,0,1001.5,44,7.97,1233,2501,10,-1,9,-41
553,1,0.00000000,0.00000000,0.0,0,0,0,0,1001.47,44,7.99,1213,2500,10,-1,7,-42
554,1,0.00000000,0.00000000,0.0,0,0,0,0,1001.47,45,8.02,1196,2500,10,0,9,-41
555,1,0.00000000,0.00000000,0.0,0,0,0,0,1001.46,45,8.04,1178,2500,10,0,8,-41
556,1,0.00000000,0.00000000,0.0,0,0,0,0,1001.5,44,8.07,1161,2500,10,0,9,-40
557,1,0.00000000,0.00000000,0.0,0,0,0,0,1001.46,44,8.1,1148,2501,10,0,9,-40
558,1,0.00000000,0.00000000,0.0,0,0,0,0,1001.49,44,8.12,1137,2498,10,0,9,-40
559,1,0.00000000,0.00000000,0.0,0,0,0,0,1001.52,44,8.15,1127,2501,10,0,9,-41
560,1,0.00000000,0.00000000,0.0,0,0,0,0,1001.51,44,8.18,1111,2499,10,0,9,-41
561,1,0.00000000,0.00000000,0.0,0,0,0,0,1001.48,44,8.21,1094,2499,10,0,9,-42
562,1,0.00000000,0.00000000,0.0,0,0,0,0,1001.5,44,8.23,1079,2499,10,0,9,-42
563,1,0.00000000,0.00000000,0.0,0,0,0,0,1001.49,44,8.27,1059,2499,10,0,9,-41
564,1,0.00000000,0.00000000,0.0,0,0,0,0,1001.49,44,8.29,1043,2499,10,0,9,-41
